Name,Longitude,Latitude,Max Temperature,Humidity,Cloudiness,Wind,Country,Time in City
Atar,-13.05,20.52,75.81200000000005,29,100,5.48,MR,16-Nov-2019 17:56:11
Atuona,-139.03,-9.8,79.77200000000003,71,5,7.76,PF,16-Nov-2019 08:26:11
Ribeira Grande,-28.7,38.52,66.2,52,20,2.1,PT,16-Nov-2019 16:56:11
Busselton,115.35,-33.64,60.998000000000026,58,0,1.91,AU,17-Nov-2019 01:56:11
Itoman,127.67,26.12,73.4,64,75,2.1,JP,17-Nov-2019 02:56:11
Royal Tunbridge Wells,0.27,51.14,44.99600000000005,86,75,1,GB,16-Nov-2019 17:56:11
Aswan,32.9,24.09,69.58399999999999,31,0,4.79,EG,16-Nov-2019 19:56:11
Avarua,-159.78,-21.21,75.2,88,0,4.1,CK,16-Nov-2019 07:56:11
Grand Gaube,57.66,-20.01,75.99199999999999,78,40,5.7,MU,16-Nov-2019 21:56:11
Tabuk,121.44,17.41,73.27400000000002,92,89,3.25,PH,17-Nov-2019 01:56:11
Cayenne,-52.33,4.94,87.8,62,3,4.6,GF,16-Nov-2019 14:56:11
Salina,-97.61,38.84,60.998000000000026,35,1,8.7,US,16-Nov-2019 11:56:11
Bubaque,-15.83,11.28,82.958,71,100,3.33,GW,16-Nov-2019 17:56:11
Cetraro,15.94,39.52,64.99400000000007,82,30,1.79,IT,16-Nov-2019 18:56:11
Ahuimanu,-157.84,21.44,78.8,83,75,1.8,US,16-Nov-2019 07:56:11
Longyan,117.03,25.1,53.61800000000009,94,1,0.9,CN,17-Nov-2019 01:56:11
Saskylakh,114.09,71.97,-8.733999999999938,97,100,2.51,RU,17-Nov-2019 02:56:11
Albany,-73.75,42.65,33.998000000000026,39,1,4.1,US,16-Nov-2019 12:56:11
Rikitea,-134.97,-23.12,73.70600000000003,84,55,7.65,PF,16-Nov-2019 08:56:11
Te Anau,167.72,-45.41,43.25,84,100,2.86,NZ,17-Nov-2019 06:56:11
Kapaa,-159.32,22.08,77.0,88,1,1.5,US,16-Nov-2019 07:56:11
Saint-Philippe,-73.48,45.36,24.998000000000026,41,1,1.5,CA,16-Nov-2019 12:56:11
New Norfolk,147.06,-42.78,46.4,98,75,3.1,AU,17-Nov-2019 04:56:11
Mount Isa,139.49,-20.73,78.8,12,11,4.1,AU,17-Nov-2019 03:56:11
Kindu,25.92,-2.95,71.97800000000007,96,100,1,CD,16-Nov-2019 19:56:11
East London,27.91,-33.02,68.0,88,40,1,ZA,16-Nov-2019 19:56:11
Provideniya,-173.23,64.42,18.914000000000033,93,100,5.35,RU,17-Nov-2019 05:56:11
Bossangoa,17.45,6.5,78.62000000000006,45,100,0.62,CF,16-Nov-2019 18:56:11
Bluff,149.07,-23.58,70.86200000000005,74,27,1.85,AU,17-Nov-2019 03:56:11
Khatanga,102.47,71.98,-10.875999999999934,88,92,1.39,RU,17-Nov-2019 00:56:11
Eyl,49.82,7.98,79.73600000000008,80,2,10.36,SO,16-Nov-2019 20:56:11
Port Alfred,26.89,-33.59,66.00200000000008,89,52,0.45,ZA,16-Nov-2019 19:56:11
Chuy,-53.46,-33.69,79.21400000000003,53,6,3.38,UY,16-Nov-2019 14:56:11
Bambous Virieux,57.76,-20.34,75.99199999999999,78,40,5.7,MU,16-Nov-2019 21:56:11
Yellowknife,-114.38,62.45,1.0040000000000546,77,75,1,CA,16-Nov-2019 10:56:11
Upernavik,-56.15,72.79,19.760000000000083,63,100,5.9,GL,16-Nov-2019 14:56:11
Punta Arenas,-70.91,-53.16,59.0,51,100,5.7,CL,16-Nov-2019 14:56:11
Cape Town,18.42,-33.93,62.99600000000005,72,20,10.8,ZA,16-Nov-2019 19:56:11
Ushuaia,-68.31,-54.81,57.2,54,40,8.7,AR,16-Nov-2019 14:56:11
Hobart,147.33,-42.88,46.4,72,75,3.1,AU,17-Nov-2019 04:56:11
Georgetown,-58.16,6.8,86.0,74,75,5.1,GY,16-Nov-2019 13:56:11
Port Lincoln,135.86,-34.72,51.908,74,24,3.94,AU,17-Nov-2019 04:26:11
Hithadhoo,73.08,-0.6,79.64600000000004,77,100,4.61,MV,16-Nov-2019 22:56:11
Puerto Ayora,-90.35,-0.74,75.2,69,75,5.7,EC,16-Nov-2019 11:56:11
Clyde River,-68.59,70.47,6.800000000000001,84,90,3.1,CA,16-Nov-2019 12:56:11
Ponta do Sol,-46,-20.63,83.642,47,43,1.2,BR,16-Nov-2019 14:56:11
Indiana,-79.15,40.62,42.008,25,1,4.1,US,16-Nov-2019 12:56:11
Port Elizabeth,-74.98,39.31,46.004000000000055,30,1,5.7,US,16-Nov-2019 12:56:11
Isangel,169.27,-19.55,73.292,83,79,8,VU,17-Nov-2019 04:56:11
Bhind,78.79,26.57,72.23000000000005,44,0,2.22,IN,16-Nov-2019 23:26:11
Hofn,-15.21,64.25,40.604000000000056,57,0,4.77,IS,16-Nov-2019 17:56:11
Greeley,-98.53,41.55,51.008,47,1,7.2,US,16-Nov-2019 11:56:11
Vaini,74.49,15.34,69.49400000000007,88,3,2.92,IN,16-Nov-2019 23:26:11
Mataura,168.86,-46.19,46.99400000000007,82,90,3.13,NZ,17-Nov-2019 06:56:11
Longyearbyen,15.63,78.22,35.6,64,75,8.2,NO,16-Nov-2019 18:56:11
Mount Gambier,140.78,-37.83,50.0,87,90,3.1,AU,17-Nov-2019 04:26:11
Cascais,-9.42,38.7,57.2,66,0,3.6,PT,16-Nov-2019 17:56:11
Port Blair,92.75,11.67,82.34600000000005,78,100,4.89,IN,16-Nov-2019 23:26:11
Arraial do Cabo,-42.02,-22.97,77.0,73,40,7.7,BR,16-Nov-2019 14:56:11
Saint-Augustin,-73.98,45.63,24.008000000000003,52,20,6.2,CA,16-Nov-2019 12:56:11
Shache,77.24,38.42,48.00200000000008,41,100,0.45,CN,17-Nov-2019 01:56:11
Shar,8.73,7.3,84.88399999999999,53,58,0.9,NG,16-Nov-2019 18:56:11
Port Macquarie,152.91,-31.43,64.00400000000005,88,90,2.1,AU,17-Nov-2019 04:56:11
San Quintin,120.52,17.54,72.32000000000006,83,70,1.57,PH,17-Nov-2019 01:56:11
Cangzhou,116.85,38.3,50.791999999999994,88,100,4.01,CN,17-Nov-2019 01:56:11
Cairns,145.77,-16.92,71.6,83,40,0.5,AU,17-Nov-2019 03:56:11
Ilulissat,-51.1,69.22,23.0,57,20,9.8,GL,16-Nov-2019 14:56:11
Santa Cruz,-36.02,-6.22,91.22000000000006,35,13,5.7,BR,16-Nov-2019 14:56:11
Manado,124.85,1.49,73.4,100,40,1,ID,17-Nov-2019 01:56:11
Necochea,-58.74,-38.55,71.72600000000008,53,0,3.63,AR,16-Nov-2019 14:56:11
Pontian Kecil,103.39,1.48,80.6,83,75,1,MY,17-Nov-2019 01:56:11
Labuhan,115.51,-2.54,74.42600000000009,80,74,0.76,ID,17-Nov-2019 01:56:11
Jamestown,138.6,-33.21,43.28600000000007,84,0,1.73,AU,17-Nov-2019 04:26:11
Bathsheba,-59.52,13.22,86.0,66,75,4.6,BB,16-Nov-2019 13:56:11
Ariquemes,-63.03,-9.91,74.642,94,98,0.98,BR,16-Nov-2019 13:56:11
Kungurtug,97.53,50.6,-22.07199999999993,95,100,0.23,RU,17-Nov-2019 00:56:11
Bredasdorp,20.04,-34.53,62.6,72,100,3.6,ZA,16-Nov-2019 19:56:11
Bayan,102.26,36.1,26.491999999999997,43,16,1.56,CN,17-Nov-2019 01:56:11
Chokurdakh,147.9,70.62,-2.16399999999998,97,100,2.09,RU,17-Nov-2019 04:56:11
Butaritari,172.79,3.07,82.56200000000005,74,98,3.95,KI,17-Nov-2019 05:56:11
Tiksi,128.87,71.64,-3.2439999999999714,98,99,1.54,RU,17-Nov-2019 02:56:11
Nexo,15.13,55.06,46.4,87,70,9.8,DK,16-Nov-2019 18:56:11
General Roca,-67.58,-39.03,78.8,24,70,3.6,AR,16-Nov-2019 14:56:11
Goderich,-81.71,43.74,30.002000000000077,72,37,5.36,CA,16-Nov-2019 12:56:11
Saint-Joseph,6.97,43.56,51.998000000000026,87,100,1.5,FR,16-Nov-2019 18:56:11
Nikolskoye,30.79,59.7,37.004000000000055,93,90,2,RU,16-Nov-2019 20:56:11
Glarus,9.07,47.04,41.0,93,68,0.5,CH,16-Nov-2019 18:56:11
Carnarvon,22.13,-30.97,73.88600000000007,33,33,12.22,ZA,16-Nov-2019 19:56:11
Lebu,38.73,8.96,54.21200000000006,57,76,2.44,ET,16-Nov-2019 20:56:11
Pangnirtung,-65.72,66.15,21.2,67,75,4.1,CA,16-Nov-2019 12:56:11
Kamina,25,-8.74,68.63000000000004,92,99,1.92,CD,16-Nov-2019 19:56:11
Castro,-73.76,-42.48,57.2,67,75,9.3,CL,16-Nov-2019 14:56:11
Souillac,-0.6,45.6,46.004000000000055,87,81,3.6,FR,16-Nov-2019 18:56:11
Lockhart,146.72,-35.22,55.4,50,53,2.6,AU,17-Nov-2019 04:56:11
Aykhal,111.51,65.95,-5.799999999999947,83,90,1,RU,17-Nov-2019 02:56:11
Santa Isabel do Rio Negro,-65.02,-0.41,82.92200000000004,85,99,1.94,BR,16-Nov-2019 13:56:11
Nemuro,145.57,43.32,32.32400000000001,63,65,12.34,JP,17-Nov-2019 02:56:11
Potsdam,13.06,52.4,42.998000000000026,93,75,4.1,DE,16-Nov-2019 18:56:11
Kodiak,-94.76,39.95,55.004000000000055,34,1,6.7,US,16-Nov-2019 11:56:11
Pitimbu,-34.81,-7.47,84.2,66,75,5.1,BR,16-Nov-2019 14:56:11
Kavieng,150.8,-2.57,83.642,72,100,3.42,PG,17-Nov-2019 03:56:11
Hermanus,19.24,-34.42,62.00600000000003,83,74,9.04,ZA,16-Nov-2019 19:56:11
Beloha,45.06,-25.17,75.56000000000009,77,96,3.15,MG,16-Nov-2019 20:56:11
Acapulco,-99.88,16.86,86.0,62,5,2.6,MX,16-Nov-2019 11:56:11
Bud,6.91,62.91,35.6,74,20,4.6,NO,16-Nov-2019 18:56:11
Saint Anthony,-111.68,43.97,42.8,86,40,1.5,US,16-Nov-2019 10:56:11
Cravo Norte,-70.2,6.3,90.734,52,51,3.76,CO,16-Nov-2019 12:56:11
Talnakh,88.39,69.49,-3.9999999999999503,76,45,7,RU,17-Nov-2019 00:56:11
Hasaki,140.83,35.73,46.4,100,20,3.6,JP,17-Nov-2019 02:56:11
Madimba,9.93,4.42,84.2,74,75,1.5,CM,16-Nov-2019 18:56:11
Katsuura,134.5,33.93,51.8,71,20,4.1,JP,17-Nov-2019 02:56:11
Severo-Kurilsk,156.12,50.68,19.706000000000028,86,91,2.92,RU,17-Nov-2019 04:56:11
Geraldton,-86.95,49.72,28.4,79,90,6.2,CA,16-Nov-2019 12:56:11
Waingapu,120.26,-9.65,82.184,73,4,2.73,ID,17-Nov-2019 01:56:11
Ilanskiy,96.06,56.24,0.302000000000028,71,100,3.51,RU,17-Nov-2019 00:56:11
Teguise,-13.56,29.06,66.2,68,20,8.2,ES,16-Nov-2019 17:56:11
Pahrump,-115.98,36.21,68.0,17,1,1.5,US,16-Nov-2019 09:56:11
Mehamn,27.85,71.03,25.502000000000077,85,0,3.73,NO,16-Nov-2019 18:56:11
Salalah,54.1,17.01,80.6,61,75,4.1,OM,16-Nov-2019 21:56:11
Praia da Vitoria,-27.07,38.73,66.2,59,20,3.6,PT,16-Nov-2019 16:56:11
Launceston,147.14,-41.43,42.008,75,0,3.6,AU,17-Nov-2019 04:56:11
Timra,17.33,62.49,35.99600000000005,91,100,1.5,SE,16-Nov-2019 18:56:11
Kavaratti,72.64,10.57,83.28200000000001,71,100,2.38,IN,16-Nov-2019 23:26:11
Palmer,139.16,-34.85,53.00600000000003,71,75,2.1,AU,17-Nov-2019 04:26:11
Jalu,21.55,29.03,66.56000000000009,34,75,5.25,LY,16-Nov-2019 19:56:11
Mackay,-115.58,53.65,30.2,86,75,2.1,CA,16-Nov-2019 10:56:11
Carbonear,-53.24,47.73,35.6,78,75,11.3,CA,16-Nov-2019 14:26:11
Marfino,37.56,56.07,37.4,100,90,4,RU,16-Nov-2019 20:56:11
Kupang,123.6,-10.16,78.8,65,18,2.6,ID,17-Nov-2019 01:56:11
San Patricio,-56.83,-26.98,83.984,34,0,2.75,PY,16-Nov-2019 14:56:11
Severo-Yeniseyskiy,93.04,60.37,-12.225999999999935,96,100,1.61,RU,17-Nov-2019 00:56:11
Mahebourg,57.7,-20.41,75.99199999999999,78,40,5.7,MU,16-Nov-2019 21:56:11
Tuktoyaktuk,-133.03,69.44,-3.9999999999999503,76,40,6.2,CA,16-Nov-2019 10:56:11
Dikson,80.55,73.51,-11.361999999999952,87,0,2.85,RU,17-Nov-2019 00:56:11
Dingle,122.67,11,73.61600000000001,86,98,0.86,PH,17-Nov-2019 01:56:11
Kahului,-156.47,20.89,78.8,65,20,4.1,US,16-Nov-2019 07:56:11
Broken Hill,141.45,-31.97,57.2,33,14,6.7,AU,17-Nov-2019 04:26:11
Kaitangata,169.85,-46.28,44.00600000000003,97,77,0.89,NZ,17-Nov-2019 06:56:11
Goure,10.27,13.98,86.0,17,75,1.34,NE,16-Nov-2019 18:56:11
Qaqortoq,-46.03,60.72,24.8,32,75,3.6,GL,16-Nov-2019 14:56:11
Itarema,-39.92,-2.92,88.53800000000004,47,55,6.22,BR,16-Nov-2019 14:56:11
Helong,116.13,25.94,61.23200000000001,59,0,1.27,CN,17-Nov-2019 01:56:11
Adrar,-0.29,27.87,66.2,29,0,10.8,DZ,16-Nov-2019 18:56:11
Akividu,81.37,16.58,78.8,88,20,1.3,IN,16-Nov-2019 23:26:11
Fort Saint James,-124.25,54.43,32.774000000000015,96,100,3.08,CA,16-Nov-2019 09:56:11
Qaanaaq,-69.36,77.48,8.24000000000002,97,100,1.46,GL,16-Nov-2019 13:56:11
Westport,-73.36,41.14,41.0,19,1,5.1,US,16-Nov-2019 12:56:11
Kruisfontein,24.73,-34,61.66400000000003,95,87,4.69,ZA,16-Nov-2019 19:56:11
Sept-Iles,-66.38,50.2,24.998000000000026,49,20,11.8,CA,16-Nov-2019 12:56:11
Hamilton,-79.87,43.26,32.0,73,75,8.7,CA,16-Nov-2019 12:56:11
Touros,-35.46,-5.2,86.0,58,75,7.7,BR,16-Nov-2019 14:56:11
Vidim,14.53,50.47,44.00600000000003,81,6,1,CZ,16-Nov-2019 18:56:11
Aksu,76.93,52.04,17.6,61,90,5,KZ,16-Nov-2019 23:56:11
Hilo,-155.08,19.71,73.00400000000005,56,1,3.1,US,16-Nov-2019 07:56:11
Tumen,129.84,42.97,19.760000000000083,39,17,1.6,CN,17-Nov-2019 01:56:11
Lavrentiya,-170.99,65.58,25.088000000000044,76,33,8.43,RU,17-Nov-2019 05:56:11
Yar-Sale,70.83,66.83,2.641999999999996,94,100,8.07,RU,16-Nov-2019 22:56:11
Bethel,-161.76,60.79,10.399999999999999,78,90,8.2,US,16-Nov-2019 08:56:11
Fenoarivo,47.44,-18.93,73.4,64,75,3.1,MG,16-Nov-2019 20:56:11
Smithers,-127.17,54.78,39.2,86,90,5.7,CA,16-Nov-2019 09:56:11
Tabou,-7.36,4.42,78.72800000000007,88,64,1.82,CI,16-Nov-2019 17:56:11
Thompson,-97.86,55.74,15.8,78,90,2.1,CA,16-Nov-2019 11:56:11
Ushtobe,77.98,45.25,24.422000000000036,37,0,0.97,KZ,16-Nov-2019 23:56:11
Coruripe,-36.18,-10.12,80.29400000000007,71,69,8.83,BR,16-Nov-2019 14:56:11
Van,43.37,38.51,41.0,21,0,2.1,TR,16-Nov-2019 20:56:11
Raychikhinsk,129.4,49.8,1.6160000000000068,91,0,2.87,RU,17-Nov-2019 02:56:11
Ballina,-9.15,54.11,42.008,93,100,1,IE,16-Nov-2019 17:56:11
Hervey Bay,152.85,-25.3,73.4,83,49,6.7,AU,17-Nov-2019 03:56:11
Mbuji-Mayi,23.6,-6.13,72.95,90,100,2.44,CD,16-Nov-2019 19:56:11
Kampot,104.18,10.62,77.0,88,40,1.5,KH,17-Nov-2019 00:56:11
Ahipara,173.16,-35.17,62.00600000000003,100,17,6.3,NZ,17-Nov-2019 06:56:11
Goundam,-3.66,16.42,84.59600000000005,15,60,3.6,ML,16-Nov-2019 17:56:11
Kununurra,128.74,-15.77,77.0,88,36,2.1,AU,17-Nov-2019 01:56:11
Seoul,126.98,37.57,44.6,86,75,1.5,KR,17-Nov-2019 02:56:11
Xichang,102.25,27.88,41.41400000000003,84,0,0.99,CN,17-Nov-2019 01:56:11
Moron,-74.26,18.56,81.95,68,1,2.25,HT,16-Nov-2019 12:56:11
Oranjemund,16.43,-28.55,62.33000000000004,85,89,9.7,ZA,16-Nov-2019 19:56:11
Maham,76.3,28.97,70.79000000000002,49,0,4.41,IN,16-Nov-2019 23:26:11
Torbay,-52.73,47.66,35.6,71,75,11.3,CA,16-Nov-2019 14:26:11
Aguimes,-15.45,27.91,69.00800000000001,60,75,12.3,ES,16-Nov-2019 17:56:11
Malanje,16.35,-9.54,67.78399999999999,96,100,2.18,AO,16-Nov-2019 18:56:11
Grindavik,-22.43,63.84,37.4,59,40,7.2,IS,16-Nov-2019 17:56:11
Poum,20.71,41.28,48.2,81,40,1.5,MK,16-Nov-2019 18:56:11
Namibe,12.15,-15.19,70.89800000000002,77,91,4.84,AO,16-Nov-2019 18:56:11
Okhotsk,143.24,59.36,17.438000000000045,70,99,8.48,RU,17-Nov-2019 03:56:11
Ciudad Bolivar,-63.55,8.12,90.64400000000008,49,73,1.57,VE,16-Nov-2019 13:56:11
Sulphur Springs,-95.6,33.14,62.00600000000003,31,1,2.1,US,16-Nov-2019 11:56:11
Iranshahr,60.69,27.21,62.6,10,0,3.26,IR,16-Nov-2019 21:26:11
Fergus Falls,-96.08,46.28,44.00600000000003,60,1,7.2,US,16-Nov-2019 11:56:11
Melfort,-104.61,52.87,26.6,92,90,5.1,CA,16-Nov-2019 11:56:11
Chahal,-89.57,15.75,72.96800000000009,90,100,1.54,GT,16-Nov-2019 11:56:11
Saint George,22.34,39.45,59.0,93,20,1.5,GR,16-Nov-2019 19:56:11
Narsaq,-46.05,60.91,24.8,32,75,3.6,GL,16-Nov-2019 14:56:11
Truckee,-120.18,39.33,51.998000000000026,52,1,1.73,US,16-Nov-2019 09:56:11
Manjacaze,33.88,-24.71,69.27800000000006,87,20,2.63,MZ,16-Nov-2019 19:56:11
Kuandian,124.78,40.73,34.25,58,100,2.52,CN,17-Nov-2019 01:56:11
Gushikawa,127.87,26.35,73.4,64,75,2.1,JP,17-Nov-2019 02:56:11
Maragogi,-35.22,-9.01,79.43000000000004,75,56,6.56,BR,16-Nov-2019 14:56:11
Iqaluit,-68.52,63.75,17.6,67,90,2.6,CA,16-Nov-2019 12:56:11
Yeppoon,150.74,-23.13,73.4,73,38,0.5,AU,17-Nov-2019 03:56:11
Takoradi,-1.75,4.89,82.38200000000002,77,45,3.89,GH,16-Nov-2019 17:56:11
Acari,-36.64,-6.44,91.49000000000002,31,23,8.86,BR,16-Nov-2019 14:56:11
Padang,100.36,-0.92,66.12800000000007,92,44,1.49,ID,17-Nov-2019 00:56:11
Codrington,153.24,-28.95,66.2,88,90,2.29,AU,17-Nov-2019 04:56:11
Kamenka,28.7,48.03,55.004000000000055,85,24,4.28,MD,16-Nov-2019 19:56:11
Rabo de Peixe,-25.58,37.8,64.4,55,75,3.6,PT,16-Nov-2019 16:56:11
Hambantota,81.12,6.12,82.058,75,98,2.48,LK,16-Nov-2019 23:26:11
Valdivia,-73.25,-39.81,64.4,63,75,5.7,CL,16-Nov-2019 14:56:11
Viedma,-62.99,-40.81,77.0,16,7,3.66,AR,16-Nov-2019 14:56:11
Caravelas,-39.27,-17.73,78.08000000000004,82,89,4.85,BR,16-Nov-2019 14:56:11
Coracora,-73.78,-15.02,60.74600000000005,35,21,6.3,PE,16-Nov-2019 12:56:11
Bambanglipuro,110.28,-7.95,74.192,92,24,1.65,ID,17-Nov-2019 00:56:11
Jasper,-87.28,33.83,57.2,35,1,2.5,US,16-Nov-2019 11:56:11
College,-147.8,64.86,6.998000000000026,84,90,2.1,US,16-Nov-2019 08:56:11
Cidreira,-50.22,-30.17,69.31400000000004,64,0,5.23,BR,16-Nov-2019 14:56:11
Saldanha,-6.55,41.42,40.694000000000074,75,13,3.63,PT,16-Nov-2019 17:56:11
Carlyle,-102.27,49.63,35.6,93,90,8.7,CA,16-Nov-2019 11:56:11
Anadyr,177.51,64.73,19.4,85,40,5,RU,17-Nov-2019 05:56:11
Hauterive,-68.27,49.18,28.4,50,90,7.7,CA,16-Nov-2019 12:56:11
Isla Vista,-119.86,34.41,77.0,66,1,1.23,US,16-Nov-2019 09:56:11
Pochutla,-96.47,15.74,87.00800000000001,66,75,1.95,MX,16-Nov-2019 11:56:11
Tasiilaq,-37.64,65.61,17.762000000000057,52,68,3.01,GL,16-Nov-2019 14:56:11
Aksarka,67.8,66.56,6.83600000000007,94,100,4.75,RU,16-Nov-2019 22:56:11
Coahuayana,-100.35,18.62,83.87600000000009,64,77,0.74,MX,16-Nov-2019 11:56:11
Sola,33.8,-3.17,72.57200000000003,69,100,3.06,TZ,16-Nov-2019 20:56:11
Rawson,-65.11,-43.3,66.92000000000006,33,15,7.84,AR,16-Nov-2019 14:56:11
Sweetwater,-100.41,32.47,62.00600000000003,41,1,7.2,US,16-Nov-2019 11:56:11
Tadine,167.88,-21.55,69.94400000000007,81,100,4.11,NC,17-Nov-2019 04:56:11
Washougal,-122.35,45.58,50.0,93,90,2.1,US,16-Nov-2019 09:56:11
La Primavera,-68.67,-32.92,86.0,23,4,5.7,AR,16-Nov-2019 14:56:11
Novikovo,37.89,51.15,36.55400000000005,83,2,3.58,RU,16-Nov-2019 20:56:11
Banda Aceh,95.32,5.56,75.34400000000008,90,100,1.3,ID,17-Nov-2019 00:56:11
Mar del Plata,-67.52,-46.43,70.84400000000008,22,100,12.64,AR,16-Nov-2019 14:56:11
Segovia,-4.12,40.95,48.2,45,94,4.6,ES,16-Nov-2019 18:56:11
Hobbs,-103.14,32.7,60.998000000000026,41,1,4.1,US,16-Nov-2019 10:56:11
Nantucket,-70.1,41.28,39.2,43,1,8.7,US,16-Nov-2019 12:56:11
Anuradhapura,80.41,8.34,73.45400000000005,93,67,1.51,LK,16-Nov-2019 23:26:11
Torbat-e Jam,60.63,35.24,35.99600000000005,60,11,3.74,IR,16-Nov-2019 21:26:11
Dale,109.99,24.09,66.29000000000002,81,54,2.73,CN,17-Nov-2019 01:56:11
Laguna,-88.94,16.17,75.2,94,75,2.1,BZ,16-Nov-2019 11:56:11
Victoria,115.24,5.28,77.0,88,75,0.69,BN,17-Nov-2019 01:56:11
Naze,7.07,5.43,75.2,94,75,2.1,NG,16-Nov-2019 18:56:11
Brosteni,25.7,47.24,48.992,100,90,3.6,RO,16-Nov-2019 19:56:11
Novichikha,81.39,52.2,3.7760000000000886,81,100,7.6,RU,17-Nov-2019 00:56:11
Aklavik,-135.01,68.22,-7.599999999999952,76,20,3.1,CA,16-Nov-2019 10:56:11
Vila Franca do Campo,-25.43,37.72,64.4,55,75,3.6,PT,16-Nov-2019 16:56:11
Leningradskiy,178.42,69.38,15.044000000000075,76,7,1.55,RU,17-Nov-2019 05:56:11
Kurchum,83.65,48.57,8.438000000000045,74,14,4.01,KZ,16-Nov-2019 23:56:11
Gizo,34.94,31.8,71.6,60,20,2.1,IL,16-Nov-2019 19:56:11
Zaragoza,-89.29,13.59,91.4,65,20,5.7,SV,16-Nov-2019 11:56:11
Barrow,-60.23,-38.31,80.74400000000007,35,0,6.16,AR,16-Nov-2019 14:56:11
Saint-Georges,-70.67,46.12,19.004000000000055,65,33,4.02,CA,16-Nov-2019 12:56:11
Doha,51.53,25.29,78.8,47,5,0.5,QA,16-Nov-2019 20:56:11
Sao Joao da Barra,-41.05,-21.64,78.8,65,75,1,BR,16-Nov-2019 14:56:11
Banjar,108.54,-7.37,72.53600000000007,93,29,0.63,ID,17-Nov-2019 00:56:11
Ngunguru,174.5,-35.62,55.004000000000055,94,6,4.42,NZ,17-Nov-2019 06:56:11
Dzerzhinskoye,95.22,56.84,0.7160000000000579,82,100,2.37,RU,17-Nov-2019 00:56:11
Casino,153.05,-28.86,66.2,88,90,2.29,AU,17-Nov-2019 04:56:11
Ishim,69.47,56.11,28.291999999999994,92,100,4.46,RU,16-Nov-2019 22:56:11
Portland,-70.25,43.66,33.008,30,1,7.7,US,16-Nov-2019 12:56:11
Mirnyy,36.46,56.57,39.21800000000009,89,97,3.15,RU,16-Nov-2019 20:56:11
Mnogovershinnyy,139.92,53.94,21.77600000000009,95,100,11.09,RU,17-Nov-2019 03:56:11
Henties Bay,14.28,-22.12,62.99600000000005,86,58,1.34,NA,16-Nov-2019 19:56:11
Yulara,130.99,-25.24,71.6,15,0,2.1,AU,17-Nov-2019 03:26:11
Pacific Grove,-121.92,36.62,64.00400000000005,93,40,7.76,US,16-Nov-2019 09:56:11
Jodhpur,73.04,26.3,73.45400000000005,50,0,4.59,IN,16-Nov-2019 23:26:11
Tobermory,-81.67,45.25,30.991999999999997,67,44,0.89,CA,16-Nov-2019 12:56:11
Mundo Nuevo,-71.41,-32.72,75.2,73,75,4.1,CL,16-Nov-2019 14:56:11
Mets Parni,44.11,40.83,28.4,74,29,3.38,AM,16-Nov-2019 21:56:11
Yarmouth,-66.12,43.84,32.0,45,40,10.3,CA,16-Nov-2019 13:56:11
Vozhega,40.21,60.47,32.233999999999995,99,100,0.85,RU,16-Nov-2019 20:56:11
Richards Bay,32.06,-28.77,70.358,77,0,6.72,ZA,16-Nov-2019 19:56:11
Yumen,97.04,40.29,22.748000000000026,23,76,7.48,CN,17-Nov-2019 01:56:11
Peniche,-9.38,39.36,55.4,66,20,0.5,PT,16-Nov-2019 17:56:11
Rauma,21.5,61.13,32.0,90,90,3.6,FI,16-Nov-2019 19:56:11
Guerrero Negro,-114.04,27.97,69.85400000000006,67,43,4.36,MX,16-Nov-2019 10:56:11
Tomatlan,-105.25,19.93,81.06800000000008,60,100,1.38,MX,16-Nov-2019 11:56:11
Williams Lake,-122.14,52.13,32.0,86,90,4.6,CA,16-Nov-2019 09:56:11
Ponta Delgada,-25.67,37.73,64.4,55,75,3.6,PT,16-Nov-2019 16:56:11
Maiduguri,13.15,11.84,87.35,18,40,4.33,NG,16-Nov-2019 18:56:11
Faanui,-151.75,-16.48,79.71800000000009,82,1,7,PF,16-Nov-2019 07:56:11
Constantine,6.61,36.36,39.2,93,90,7.2,DZ,16-Nov-2019 18:56:11
Mazatlan,-106.42,23.22,87.99800000000002,42,75,1.98,MX,16-Nov-2019 10:56:11
San Rafael del Sur,-86.44,11.85,89.6,62,20,3.1,NI,16-Nov-2019 11:56:11
Omboue,9.26,-1.57,75.86600000000001,94,100,1.18,GA,16-Nov-2019 18:56:11
Pisco,-76.2,-13.71,71.6,30,20,4.6,PE,16-Nov-2019 12:56:11
Osypenko,34.39,48.04,35.6,69,3,2,UA,16-Nov-2019 19:56:11
Nelson Bay,152.14,-32.72,66.99199999999999,82,90,2.1,AU,17-Nov-2019 04:56:11
Canosa di Puglia,16.07,41.22,66.99199999999999,77,49,4.6,IT,16-Nov-2019 18:56:11
Pringsewu,104.98,-5.36,71.02400000000002,98,7,1.05,ID,17-Nov-2019 00:56:11
Fairbanks,-147.72,64.84,6.998000000000026,84,90,2.1,US,16-Nov-2019 08:56:11
Celestun,-90.4,20.87,72.66200000000006,72,74,8.74,MX,16-Nov-2019 11:56:11
Verkhnetulomskiy,31.8,68.61,19.4,92,75,1,RU,16-Nov-2019 20:56:11
Calvinia,19.78,-31.47,71.40200000000007,40,0,6.76,ZA,16-Nov-2019 19:56:11
Coquimbo,-71.34,-29.95,66.2,68,40,5.1,CL,16-Nov-2019 14:56:11
Vanimo,141.3,-2.67,84.21800000000009,77,100,7.61,PG,17-Nov-2019 03:56:11
Ekhabi,142.97,53.51,32.504000000000055,93,100,10.89,RU,17-Nov-2019 04:56:11
Clearlake,-122.63,38.96,66.00200000000008,100,75,1.49,US,16-Nov-2019 09:56:11
Sangar,127.47,63.92,-19.803999999999952,99,95,1.24,RU,17-Nov-2019 02:56:11
Altensteig,8.61,48.59,41.0,93,25,2.6,DE,16-Nov-2019 18:56:11
Cabo San Lucas,-109.91,22.89,82.99400000000007,54,75,2.6,MX,16-Nov-2019 10:56:11
Nerchinskiy Zavod,119.61,51.31,-4.971999999999937,81,7,1.13,RU,17-Nov-2019 02:56:11
Nuevo Laredo,-99.5,27.49,64.99400000000007,42,1,2.6,US,16-Nov-2019 11:56:11
Beyneu,55.19,45.32,32.18000000000004,61,0,2.83,KZ,16-Nov-2019 22:56:11
Isiro,27.62,2.77,71.42000000000006,87,31,0.86,CD,16-Nov-2019 19:56:11
Paamiut,-49.67,61.99,25.37600000000009,46,89,5.67,GL,16-Nov-2019 14:56:11
Nouakchott,-15.98,18.08,91.4,17,100,6.7,MR,16-Nov-2019 17:56:11
Namatanai,152.44,-3.66,82.61600000000001,74,93,1.19,PG,17-Nov-2019 03:56:11
Lompoc,-120.46,34.64,73.99400000000007,52,1,2.1,US,16-Nov-2019 09:56:11
Manicore,-61.3,-5.81,79.34000000000002,81,100,1.32,BR,16-Nov-2019 13:56:11
Carballo,-8.69,43.21,51.998000000000026,81,90,3.6,ES,16-Nov-2019 18:56:11
Jambi,103.62,-1.6,74.408,90,0,0.67,ID,17-Nov-2019 00:56:11
Springdale,-94.13,36.19,55.99400000000007,39,1,1.5,US,16-Nov-2019 11:56:11
Bowen,148.25,-20.01,75.00200000000008,88,28,1.5,AU,17-Nov-2019 03:56:11
Margate,147.26,-43.03,46.4,72,75,3.1,AU,17-Nov-2019 04:56:11
Makakilo City,-158.09,21.35,78.8,100,75,3.1,US,16-Nov-2019 07:56:11
Sur,59.53,22.57,73.41800000000009,38,55,2.05,OM,16-Nov-2019 21:56:11
Ayr,147.4,-19.58,69.99800000000002,87,26,2.95,AU,17-Nov-2019 03:56:11
Ostrovnoy,39.51,68.05,24.278000000000066,94,87,3.58,RU,16-Nov-2019 20:56:11
Rocha,-54.34,-34.48,76.47800000000007,63,50,3.94,UY,16-Nov-2019 14:56:11
Samarai,150.67,-10.62,74.26400000000004,94,90,1.47,PG,17-Nov-2019 03:56:11
Prainha,-53.48,-1.8,100.20200000000008,31,83,2.49,BR,16-Nov-2019 14:56:11
Tumbagaan,120.31,5.37,82.16600000000001,72,0,1.62,PH,17-Nov-2019 01:56:11
Esso,158.7,55.93,-1.3899999999999721,89,35,0.29,RU,17-Nov-2019 05:56:11
Kosa,130.82,32.67,43.32200000000004,30,13,0.11,JP,17-Nov-2019 02:56:11
Kimbe,150.15,-5.56,73.27400000000002,95,100,1.23,PG,17-Nov-2019 03:56:11
Rangapara,92.69,26.82,63.14000000000002,94,10,1.22,IN,16-Nov-2019 23:26:11
Uvat,68.9,59.14,27.752000000000077,93,97,4.61,RU,16-Nov-2019 22:56:11
Hualmay,-77.61,-11.1,74.82200000000003,54,99,4.57,PE,16-Nov-2019 12:56:11
Methoni,21.7,36.82,64.00400000000005,82,40,5.67,GR,16-Nov-2019 19:56:11
Wewak,143.63,-3.55,76.60400000000006,89,100,1.71,PG,17-Nov-2019 03:56:11
Costinesti,28.63,43.95,59.0,93,90,4.1,RO,16-Nov-2019 19:56:11
Yelizovo,158.38,53.19,14.0,92,40,2,RU,17-Nov-2019 05:56:11
Chingirlau,54.08,51.09,30.50600000000003,64,18,1.72,KZ,16-Nov-2019 22:56:11
Gat,-16.54,14.69,86.0,40,89,2.1,SN,16-Nov-2019 17:56:11
Minab,57.07,27.15,66.2,68,85,1.55,IR,16-Nov-2019 21:26:11
Mineros,-63.23,-17.12,89.6,40,20,2.1,BO,16-Nov-2019 13:56:11
Norman Wells,-126.83,65.28,-5.799999999999947,76,90,3.1,CA,16-Nov-2019 10:56:11
Kulhudhuffushi,73.07,6.62,81.96800000000009,78,100,4.04,MV,16-Nov-2019 22:56:11
Ovalle,-71.2,-30.6,76.85600000000002,40,0,5.45,CL,16-Nov-2019 14:56:11
Chapais,-74.86,49.78,6.800000000000001,60,1,3.6,CA,16-Nov-2019 12:56:11
Fort Nelson,-122.69,58.81,-3.9999999999999503,83,75,1,CA,16-Nov-2019 10:56:11
Berlevag,29.09,70.86,34.93399999999999,72,23,4.57,NO,16-Nov-2019 18:56:11
Cassilandia,-51.73,-19.11,89.36600000000001,36,20,2.3,BR,16-Nov-2019 13:56:11
Komsomolskiy,63.78,67.55,20.354000000000052,96,99,2.71,RU,16-Nov-2019 20:56:11
Greymouth,171.21,-42.45,53.54600000000005,85,0,3.52,NZ,17-Nov-2019 06:56:11
Constitucion,-104.67,23.99,62.99600000000005,55,75,1.5,MX,16-Nov-2019 11:56:11
Rakiv Lis,24.92,51.62,49.37000000000006,86,58,4.32,UA,16-Nov-2019 19:56:11
Constanta,28.65,44.18,60.008,93,90,4.1,RO,16-Nov-2019 19:56:11
Alyangula,136.42,-13.85,71.6,94,63,0.71,AU,17-Nov-2019 03:26:11
Lahaina,-156.68,20.87,78.8,61,40,3.6,US,16-Nov-2019 07:56:11
Mastung,66.85,29.8,47.26400000000003,60,54,0.88,PK,16-Nov-2019 22:56:11
Pasni,63.48,25.26,65.24600000000005,53,14,0.8,PK,16-Nov-2019 22:56:11
Inta,60.13,66.04,23.414000000000033,90,100,6.42,RU,16-Nov-2019 20:56:11
Iwata,137.85,34.71,55.99400000000007,77,0,3.13,JP,17-Nov-2019 02:56:11
Vardo,-77.74,39.62,44.99600000000005,35,1,4.6,US,16-Nov-2019 12:56:11
Tigil,158.67,57.8,26.02400000000001,82,100,1.23,RU,17-Nov-2019 05:56:11
Aloleng,119.78,16.13,73.43600000000006,91,97,0.63,PH,17-Nov-2019 01:56:11
Neiafu,-173.98,-18.65,66.2,93,20,5.38,TO,17-Nov-2019 06:56:11
Havoysund,24.66,71,30.2,80,1,4.1,NO,16-Nov-2019 18:56:11
Mecca,39.83,21.43,77.72000000000006,63,24,0.67,SA,16-Nov-2019 20:56:11
Alekseyevsk,108.35,57.84,-17.751999999999974,96,6,1.25,RU,17-Nov-2019 01:56:11
Aksha,113.29,50.28,5.774000000000012,53,100,3.24,RU,17-Nov-2019 02:56:11
Vastseliina,27.29,57.73,39.2,93,94,3,EE,16-Nov-2019 19:56:11
Kassala,36.38,15.45,87.458,37,1,6.27,SD,16-Nov-2019 19:56:11
Rafaela,-61.49,-31.25,84.99199999999999,53,0,2.24,AR,16-Nov-2019 14:56:11
Iwo,4.18,7.63,86.0,70,40,2.6,NG,16-Nov-2019 18:56:11
Zolotonosha,32.04,49.67,46.52600000000009,76,18,4.05,UA,16-Nov-2019 19:56:11
Torres,-49.73,-29.34,69.49400000000007,67,12,5.8,BR,16-Nov-2019 14:56:11
Gilgit,74.31,35.92,27.104000000000052,95,98,0.32,PK,16-Nov-2019 22:56:11
Kohila,24.75,59.17,39.992,93,90,5.1,EE,16-Nov-2019 19:56:11
Santa Maria del Oro,-105.37,25.95,63.42800000000007,50,21,1.7,MX,16-Nov-2019 11:56:11
Katobu,122.53,-4.94,74.73200000000001,88,20,1.21,ID,17-Nov-2019 01:56:11
Tuatapere,167.69,-46.13,46.99400000000007,82,89,3.13,NZ,17-Nov-2019 06:56:11
Lashio,97.75,22.93,57.63200000000002,88,0,0.39,MM,17-Nov-2019 00:26:11
Abdulino,53.66,53.68,29.533999999999992,81,55,3.96,RU,16-Nov-2019 22:56:11
Zhigalovo,105.15,54.81,-11.091999999999942,95,80,0.9,RU,17-Nov-2019 01:56:11
Kibala,18.35,9.11,87.8,45,51,1.24,TD,16-Nov-2019 18:56:11
Salamiyah,37.05,35.01,63.37400000000001,32,0,4.27,SY,16-Nov-2019 19:56:11
Shimoda,138.93,34.7,50.0,72,0,0.45,JP,17-Nov-2019 02:56:11
Baoshan,121.49,31.41,69.00800000000001,82,74,4,CN,17-Nov-2019 01:56:11
Concordia,-58.02,-31.4,86.0,40,75,4.1,AR,16-Nov-2019 14:56:11
Rexburg,-111.79,43.82,42.8,44,20,3.6,US,16-Nov-2019 10:56:11
Shitanjing,106.34,39.23,33.008,18,68,1.34,CN,17-Nov-2019 01:56:11
Skibbereen,-9.27,51.55,41.0,60,100,3.1,IE,16-Nov-2019 17:56:11
Tura,100.22,64.27,-28.857999999999947,94,54,1.15,RU,17-Nov-2019 00:56:11
Tazovskiy,78.7,67.47,-15.033999999999942,93,84,8.2,RU,16-Nov-2019 22:56:11
Xuzhou,117.18,34.27,60.62000000000006,51,100,2.41,CN,17-Nov-2019 01:56:11
Sterling,-77.4,39,46.99400000000007,45,1,2.6,US,16-Nov-2019 12:56:11
Snezhnogorsk,33.23,69.19,19.4,92,75,1,RU,16-Nov-2019 20:56:11
Orlik,17.74,53.95,50.0,87,75,4.1,PL,16-Nov-2019 18:56:11
Tautira,-149.15,-17.73,82.4,69,20,1.5,PF,16-Nov-2019 07:56:11
Yatou,9.81,3.63,84.2,74,75,1.5,CM,16-Nov-2019 18:56:11
Marataizes,-40.82,-21.04,73.45400000000005,80,100,3.38,BR,16-Nov-2019 14:56:11
Maniitsoq,-52.9,65.42,26.510000000000083,66,98,7.56,GL,16-Nov-2019 14:56:11
Beinamar,15.38,8.67,82.97600000000008,29,97,0.45,TD,16-Nov-2019 18:56:11
Yining,114.56,29.04,64.5260000000001,59,91,0.86,CN,17-Nov-2019 01:56:11
Sao Filipe,-24.5,14.9,72.87800000000007,81,59,7.18,CV,16-Nov-2019 16:56:11
Zheleznodorozhnyy,38,55.75,39.00200000000008,93,90,3,RU,16-Nov-2019 20:56:11
Price,-110.81,39.6,53.00600000000003,31,1,1.5,US,16-Nov-2019 10:56:11
Pevek,170.27,69.7,4.064000000000032,75,19,1.12,RU,17-Nov-2019 05:56:11
Ixtapa,-105.21,20.71,82.99400000000007,69,90,1.18,MX,16-Nov-2019 11:56:11
Tyubuk,60.94,56.05,31.49600000000005,71,96,6.47,RU,16-Nov-2019 22:56:11
Sokoto,5.24,13.06,86.9,21,6,1.86,NG,16-Nov-2019 18:56:11
Medicine Hat,-110.68,50.04,46.004000000000055,74,20,7.7,CA,16-Nov-2019 10:56:11
Mackenzie,-123.09,55.34,35.6,93,90,5.1,CA,16-Nov-2019 09:56:11
Kuminskiy,66.57,58.67,22.946000000000048,96,30,2.67,RU,16-Nov-2019 22:56:11
Los Llanos de Aridane,-17.92,28.66,66.2,82,75,9.3,ES,16-Nov-2019 17:56:11
Saurimo,20.4,-9.66,69.83600000000007,88,100,1.66,AO,16-Nov-2019 18:56:11
El Ermitano,-97.51,20.21,68.0,68,90,4.1,MX,16-Nov-2019 11:56:11
Nuuk,-51.74,64.17,26.6,63,40,9.8,GL,16-Nov-2019 14:56:11
Plettenberg Bay,23.37,-34.05,61.57400000000001,95,96,5.53,ZA,16-Nov-2019 19:56:11
Martinsville,-79.87,36.69,50.0,49,40,6.2,US,16-Nov-2019 12:56:11
The Valley,-63.06,18.22,87.99800000000002,70,40,4.6,AI,16-Nov-2019 13:56:11
Nanortalik,-45.24,60.14,31.064000000000032,63,100,7.51,GL,16-Nov-2019 14:56:11
Taoudenni,-3.98,22.68,73.76000000000008,17,72,4.49,ML,16-Nov-2019 17:56:11
Nouadhibou,-17.03,20.93,75.2,50,40,4.6,MR,16-Nov-2019 17:56:11
Tall Kayf,41.07,37.08,60.8,31,0,4.1,TR,16-Nov-2019 19:56:11
Hounde,-3.52,11.5,90.01400000000004,18,64,1.72,BF,16-Nov-2019 17:56:11
Carauari,-66.9,-4.88,76.13600000000007,95,100,0.83,BR,16-Nov-2019 13:56:11
Rio Grande,-52.1,-32.03,82.4,45,0,3.1,BR,16-Nov-2019 14:56:11
Ampanihy,44.75,-24.69,76.15400000000005,67,77,7.54,MG,16-Nov-2019 20:56:11
Asyut,31.19,27.18,71.6,60,0,6.2,EG,16-Nov-2019 19:56:11
Balaipungut,101.31,1.11,74.12000000000006,97,100,1.1,ID,17-Nov-2019 00:56:11
Noumea,166.46,-22.28,77.0,68,53,0.5,NC,17-Nov-2019 04:56:11
Neyshabur,58.79,36.21,37.47200000000004,58,94,8.57,IR,16-Nov-2019 21:26:11
Palu,119.87,-0.9,65.91200000000006,98,22,0.94,ID,17-Nov-2019 01:56:11
Magadan,150.8,59.56,16.178000000000065,65,97,10.94,RU,17-Nov-2019 04:56:11
Iquira,-75.64,2.65,84.2,66,40,2.6,CO,16-Nov-2019 12:56:11
Masakin,47.68,15.32,63.69800000000002,85,0,4.1,YE,16-Nov-2019 20:56:11
Kieta,155.63,-6.22,81.17600000000009,80,71,2.11,PG,17-Nov-2019 04:56:11
Nanzhang,111.84,31.78,60.944000000000074,38,59,4.18,CN,17-Nov-2019 01:56:11
Ilo,-71.34,-17.65,73.4,60,95,3.6,PE,16-Nov-2019 12:56:11
Flin Flon,-101.88,54.77,21.2,92,90,4.1,CA,16-Nov-2019 11:56:11
Airai,125.41,-8.93,68.684,33,0,2.23,TL,17-Nov-2019 02:56:11
Boende,20.88,-0.28,73.958,97,100,1.39,CD,16-Nov-2019 18:56:11
Melfi,15.66,41,60.8,53,20,2.1,IT,16-Nov-2019 18:56:11
Atambua,124.89,-9.11,73.92200000000004,71,15,1.14,ID,17-Nov-2019 01:56:11
Unai,-46.91,-16.36,81.842,55,100,3.16,BR,16-Nov-2019 14:56:11
Sabha,14.43,27.03,71.13200000000002,14,68,2.89,LY,16-Nov-2019 19:56:11
Meulaboh,96.13,4.14,77.234,92,100,4.54,ID,17-Nov-2019 00:56:11
Erzin,36.2,36.95,71.00600000000003,77,0,1.5,TR,16-Nov-2019 20:56:11
Sobolevo,31.9,54.43,42.15200000000008,92,85,3.91,RU,16-Nov-2019 20:56:11
Macia,33.09,-25.03,71.13200000000002,68,0,3.96,MZ,16-Nov-2019 19:56:11
Santa Lucia,12.66,41.98,66.99199999999999,63,75,8.2,IT,16-Nov-2019 18:56:11
Otane,176.62,-39.89,60.998000000000026,69,100,4.02,NZ,17-Nov-2019 06:56:11
Carnoustie,-2.71,56.5,42.998000000000026,100,75,1.5,GB,16-Nov-2019 17:56:11
Moree,149.84,-29.46,62.6,27,0,3.6,AU,17-Nov-2019 04:56:11
Manzil Salim,8.48,35.86,42.8,81,40,5.1,TN,16-Nov-2019 18:56:11
Mayo,-135.9,63.59,5.0,71,90,4.1,CA,16-Nov-2019 09:56:11
Ruteng,120.46,-8.61,66.434,72,17,1.94,ID,17-Nov-2019 01:56:11
Pictou,-62.71,45.68,28.004000000000055,65,72,10.28,CA,16-Nov-2019 13:56:11
Mount Pleasant,-94.97,33.16,55.4,37,1,2.1,US,16-Nov-2019 11:56:11
Benito Juarez,-79.63,22.29,77.0,94,75,1.5,CU,16-Nov-2019 12:56:11
Esperance,121.89,-33.86,62.6,67,12,6.7,AU,17-Nov-2019 01:56:11
Haines Junction,-137.51,60.75,23.918000000000085,97,100,1.82,CA,16-Nov-2019 09:56:11
Falkenberg,12.22,49.86,39.00200000000008,93,40,2.1,DE,16-Nov-2019 18:56:11
Maku,44.45,39.29,35.6,69,0,1.31,IR,16-Nov-2019 21:26:11
Loralai,68.6,30.37,51.22400000000001,61,67,0.71,PK,16-Nov-2019 22:56:11
Praia,-43.81,-20.25,82.4,61,40,4.1,BR,16-Nov-2019 14:56:11
Yerbogachen,108.01,61.28,-25.941999999999936,95,82,2.38,RU,17-Nov-2019 01:56:11
Moose Factory,-80.61,51.26,10.399999999999999,55,20,4.6,CA,16-Nov-2019 12:56:11
Florianopolis,-48.55,-27.6,80.99600000000005,61,40,6.2,BR,16-Nov-2019 14:56:11
Oktyabrskiy,37.97,55.61,39.00200000000008,93,90,3,RU,16-Nov-2019 20:56:11
Marinette,-87.63,45.1,37.99400000000007,69,40,5.1,US,16-Nov-2019 11:56:11
Lazaro Cardenas,-105.62,28.39,69.00800000000001,71,75,3.95,MX,16-Nov-2019 10:56:11
Glendive,-104.71,47.11,44.00600000000003,86,90,6.7,US,16-Nov-2019 10:56:11
Ossora,163.07,59.24,28.4,95,100,13.18,RU,17-Nov-2019 05:56:11
Auki,6.51,12.18,84.84800000000003,21,33,3.02,NG,16-Nov-2019 18:56:11
Hilton Head Island,-80.75,32.16,48.992,87,90,7.7,US,16-Nov-2019 12:56:11
Zharkovskiy,32.27,55.85,41.46800000000009,93,99,2.76,RU,16-Nov-2019 20:56:11
Petropavlovsk-Kamchatskiy,158.65,53.05,14.0,92,40,2,RU,17-Nov-2019 05:56:11
Yucca Valley,-116.41,34.12,82.99400000000007,25,1,2.1,US,16-Nov-2019 09:56:11
Tema,-0.01,5.66,84.2,79,20,5.1,GH,16-Nov-2019 17:56:11
Myskhako,37.76,44.66,53.6,66,75,5,RU,16-Nov-2019 20:56:11
Flinders,150.85,-34.58,62.99600000000005,100,90,2.6,AU,17-Nov-2019 04:56:11
Humaita,-65.37,-24.93,91.4,32,75,4.6,AR,16-Nov-2019 14:56:11
Bilibino,166.44,68.06,-1.2999999999999474,46,61,0.36,RU,17-Nov-2019 05:56:11
Weihai,122.11,37.5,57.00200000000008,71,99,1.34,CN,17-Nov-2019 01:56:11
Petrove,33.27,48.34,42.8,93,90,5,UA,16-Nov-2019 19:56:11
Ghanzi,21.65,-21.7,86.97200000000004,9,5,3.66,BW,16-Nov-2019 19:56:11
Batticaloa,81.69,7.71,74.89400000000008,91,90,1.31,LK,16-Nov-2019 23:26:11
Sorland,12.69,67.67,40.064000000000036,69,0,6.99,NO,16-Nov-2019 18:56:11
Cockburn Town,-71.14,21.46,84.2,70,40,2.6,TC,16-Nov-2019 12:56:11
Jingdezhen,117.2,29.29,64.09400000000008,46,69,0.62,CN,17-Nov-2019 01:56:11
Proletariy,31.7,58.43,37.958000000000006,90,90,1.45,RU,16-Nov-2019 20:56:11
Cuamba,36.54,-14.8,75.38000000000004,73,94,3.41,MZ,16-Nov-2019 19:56:11
High Level,-117.13,58.52,12.2,92,90,2.49,CA,16-Nov-2019 10:56:11
Mitsamiouli,43.28,-11.38,84.2,66,20,1,KM,16-Nov-2019 20:56:11
Vestmanna,-7.17,62.16,42.8,93,100,7.7,FO,16-Nov-2019 17:56:11
Ijui,-53.91,-28.39,78.58399999999999,37,0,3.42,BR,16-Nov-2019 14:56:11
Havre-Saint-Pierre,-63.6,50.23,21.2,62,40,10.3,CA,16-Nov-2019 12:56:11
Srednekolymsk,153.71,67.46,5.4140000000000335,95,100,3.14,RU,17-Nov-2019 04:56:11
Chumikan,135.31,54.72,8.204000000000054,75,100,8.87,RU,17-Nov-2019 03:56:11
Vila,8.4,45.18,48.992,100,90,4.6,IT,16-Nov-2019 18:56:11
Hortobagy,21.15,47.58,53.6,87,49,2.1,HU,16-Nov-2019 18:56:11
Port Shepstone,30.45,-30.74,62.36600000000001,90,39,0.21,ZA,16-Nov-2019 19:56:11
Kirakira,161.92,-10.46,76.19000000000003,89,94,2.62,SB,17-Nov-2019 04:56:11
Sinnamary,-52.96,5.38,82.54400000000007,79,8,6.11,GF,16-Nov-2019 14:56:11
Draguignan,6.46,43.54,53.00600000000003,81,75,2.07,FR,16-Nov-2019 18:56:11
Ust-Barguzin,109.03,53.41,11.516000000000009,89,100,5.7,RU,17-Nov-2019 01:56:11
Solnechnyy,136.64,50.72,8.132000000000016,84,98,1.17,RU,17-Nov-2019 03:56:11
Port Hawkesbury,-61.36,45.62,28.004000000000055,62,90,9.3,CA,16-Nov-2019 13:56:11
Avera,-82.53,33.19,57.00200000000008,71,90,7.7,US,16-Nov-2019 12:56:11
Nome,-94.42,30.04,59.0,33,1,3.6,US,16-Nov-2019 11:56:11
Vao,26.19,59.1,34.37600000000009,96,67,3.21,EE,16-Nov-2019 19:56:11
Wuchi,103.02,29.38,44.74400000000007,96,90,0.88,CN,17-Nov-2019 01:56:11
Bintulu,113.03,3.17,77.0,94,75,0.5,MY,17-Nov-2019 01:56:11
Saint-Paul,1.9,45.22,41.0,93,100,2.1,FR,16-Nov-2019 18:56:11
Ayan,44.7,38.23,26.47400000000001,82,1,1.65,IR,16-Nov-2019 21:26:11
Sikeston,-89.59,36.88,46.99400000000007,60,1,2.6,US,16-Nov-2019 11:56:11
Malanville,3.39,11.86,84.66800000000009,24,13,1.35,NE,16-Nov-2019 18:56:11
Kerema,145.78,-7.96,73.74199999999999,93,96,0.96,PG,17-Nov-2019 03:56:11
Wagar,-87.99,31.44,57.992,52,0,0.45,US,16-Nov-2019 11:56:11
Omaruru,15.95,-21.42,72.17600000000009,30,48,5.55,NA,16-Nov-2019 19:56:11
Walvis Bay,14.51,-22.95,66.2,72,58,2.6,NA,16-Nov-2019 19:56:11
Ancud,-73.83,-41.87,57.2,67,75,9.3,CL,16-Nov-2019 14:56:11
Herat,62.22,34.35,44.6,52,0,1.5,AF,16-Nov-2019 22:26:11
Manokwari,134.08,-0.87,74.39000000000001,72,97,1.82,ID,17-Nov-2019 02:56:11
Grand-Lahou,-5,5.24,83.10200000000007,76,100,5.08,CI,16-Nov-2019 17:56:11
Hay River,-115.79,60.82,5.0,77,75,1,CA,16-Nov-2019 10:56:11
Comodoro Rivadavia,-67.48,-45.87,71.6,21,100,10.3,AR,16-Nov-2019 14:56:11
Tambovka,47.38,47.32,35.52800000000006,85,0,4.96,RU,16-Nov-2019 21:56:11
Cherskiy,161.3,68.75,-4.899999999999949,99,96,1.62,RU,17-Nov-2019 04:56:11
Petrolina,-40.5,-9.38,100.4,24,20,1,BR,16-Nov-2019 14:56:11
Sorong,131.25,-0.86,73.22000000000006,99,99,0.52,ID,17-Nov-2019 02:56:11
Quatre Cocos,57.76,-20.21,75.99199999999999,78,40,5.7,MU,16-Nov-2019 21:56:11
Putina,-69.87,-14.91,57.2,41,75,4.6,PE,16-Nov-2019 12:56:11
Panaba,-88.27,21.28,80.00600000000003,54,85,2.68,MX,16-Nov-2019 11:56:11
San Jose,-87.96,14.25,77.0,61,80,3.43,HN,16-Nov-2019 11:56:11
Abu Dhabi,54.37,24.47,77.0,65,0,2.6,AE,16-Nov-2019 21:56:11
Palmas Bellas,-80.09,9.23,86.0,83,40,5.1,PA,16-Nov-2019 12:56:11
Novoagansk,76.66,61.94,13.802000000000078,96,100,1.01,RU,16-Nov-2019 22:56:11
Catalina Foothills,-110.92,32.3,77.0,21,1,1.5,US,16-Nov-2019 10:56:11
Bajil,-2.07,38.23,35.99600000000005,70,0,2.68,ES,16-Nov-2019 18:56:11
Rome,12.48,41.89,66.99199999999999,63,75,8.2,IT,16-Nov-2019 18:56:11
Hovd,10.7,63.83,39.2,64,75,4.6,NO,16-Nov-2019 18:56:11
Fort Oglethorpe,-85.24,34.95,57.2,39,1,4.1,US,16-Nov-2019 12:56:11
Bira,132.47,49,-0.05799999999995009,86,12,2.18,RU,17-Nov-2019 03:56:11
Lady Frere,27.23,-31.7,58.53200000000002,86,30,4.91,ZA,16-Nov-2019 19:56:11
Pitanga,-51.76,-24.76,78.04400000000007,50,28,1.36,BR,16-Nov-2019 14:56:11
Chatellerault,0.53,46.8,42.008,93,90,0.5,FR,16-Nov-2019 18:56:11
Alice Springs,133.88,-23.7,64.4,15,0,2.1,AU,17-Nov-2019 03:26:11
Lagoa,-8.45,37.14,60.008,58,0,4.1,PT,16-Nov-2019 17:56:11
Barao de Melgaco,-55.97,-16.19,89.6,49,75,1,BR,16-Nov-2019 13:56:11
Mitzic,11.55,0.78,71.72600000000008,96,100,1.37,GA,16-Nov-2019 18:56:11
