Name,Longitude,Latitude,Temperature,Humidity,Cloudiness,Wind
Nikolskoye,30.79,59.7,278.38,87,90,5
Hilo,-155.08,19.71,292.27,78,1,2.05
Pacific Grove,-121.92,36.62,282.59,93,90,2.6
Punta Arenas,-70.91,-53.16,282.75,87,90,2.6
Whitehorse,-135.06,60.72,263.97,85,90,2.1
Busselton,115.35,-33.64,294.63,31,11,5.44
Namibe,12.15,-15.19,296.43,81,12,4.54
Yellowknife,-114.38,62.45,259.58,84,90,2.1
Navolato,-107.7,24.76,289.69,100,5,4.1
