Name,Longitude,Latitude,Max Temperature,Humidity,Cloudiness,Wind,Country,Time in City
Rikitea,-134.97,-23.12,71.34800000000003,79,28,10.66,PF,14-Nov-2019 08:01:46
Ushuaia,-68.31,-54.81,57.2,47,75,8.7,AR,14-Nov-2019 14:01:46
Tilichiki,166.1,60.47,21.02000000000006,92,95,2.36,RU,15-Nov-2019 05:01:46
Aklavik,-135.01,68.22,-5.799999999999947,76,75,4.1,CA,14-Nov-2019 10:01:46
Hobart,147.33,-42.88,53.6,46,40,9.3,AU,15-Nov-2019 04:01:46
Hilo,-155.08,19.71,71.6,64,1,3.1,US,14-Nov-2019 07:01:46
Cardenas,-110.24,27.62,75.00200000000008,60,5,1,MX,14-Nov-2019 10:01:46
Pangody,74.49,65.85,-8.967999999999982,100,100,0.12,RU,14-Nov-2019 22:01:46
Dingle,122.67,11,74.71400000000003,92,100,0.78,PH,15-Nov-2019 01:01:46
Ajdabiya,20.22,30.75,62.99600000000005,44,0,1.59,LY,14-Nov-2019 19:01:46
Constitucion,-104.67,23.99,55.99400000000007,30,5,0.95,MX,14-Nov-2019 11:01:46
Tuktoyaktuk,-133.03,69.44,-8.319999999999958,98,67,1.39,CA,14-Nov-2019 10:01:46
Tieli,128.05,46.98,5.018000000000086,58,11,3.23,CN,15-Nov-2019 01:01:46
Bluff,149.07,-23.58,69.04400000000007,87,17,3.03,AU,15-Nov-2019 03:01:46
Lebu,38.73,8.96,64.4,48,40,4.1,ET,14-Nov-2019 20:01:46
Torres,-49.73,-29.34,72.37400000000001,87,63,4.74,BR,14-Nov-2019 14:01:46
Mitsamiouli,43.28,-11.38,84.2,62,20,4.1,KM,14-Nov-2019 20:01:46
Upernavik,-56.15,72.79,18.77000000000006,74,100,1.8,GL,14-Nov-2019 14:01:46
Punta Arenas,-70.91,-53.16,53.6,87,90,2.6,CL,14-Nov-2019 14:01:46
Albany,-73.75,42.65,33.008,54,90,4.1,US,14-Nov-2019 12:01:46
Ostrovnoy,39.51,68.05,34.592,95,100,5.33,RU,14-Nov-2019 20:01:46
Cervo,-46.24,-22.19,70.43000000000004,90,100,3.73,BR,14-Nov-2019 14:01:46
Souillac,-0.6,45.6,46.4,81,75,3.1,FR,14-Nov-2019 18:01:46
Grand Falls,-67.74,47.05,23.0,72,1,2.1,CA,14-Nov-2019 13:01:46
Iqaluit,-68.52,63.75,15.8,78,90,11.3,CA,14-Nov-2019 12:01:46
Cherskiy,161.3,68.75,15.782000000000018,77,64,4.19,RU,15-Nov-2019 04:01:46
Cape Town,18.42,-33.93,69.00800000000001,77,75,11.3,ZA,14-Nov-2019 19:01:46
Thompson,-97.86,55.74,2.966000000000008,72,58,5.8,CA,14-Nov-2019 11:01:46
Yarmouth,-66.12,43.84,33.008,64,94,2.68,CA,14-Nov-2019 13:01:46
Kahului,-156.47,20.89,73.00400000000005,77,1,2.6,US,14-Nov-2019 07:01:46
Atuona,-139.03,-9.8,79.77200000000003,74,25,5.28,PF,14-Nov-2019 07:31:46
Kununurra,128.74,-15.77,77.0,69,92,1.5,AU,15-Nov-2019 01:01:46
Buala,159.59,-8.15,79.16000000000008,76,90,1.4,SB,15-Nov-2019 04:01:46
Kodiak,-94.76,39.95,39.992,59,1,5.1,US,14-Nov-2019 11:01:46
Japura,102.29,-0.42,73.59800000000003,97,74,0.63,ID,15-Nov-2019 00:01:46
Kargasok,80.87,59.06,-3.2979999999999734,94,94,4.88,RU,15-Nov-2019 00:01:46
Tuatapere,167.69,-46.13,42.008,93,78,1.34,NZ,15-Nov-2019 06:01:46
Vaini,74.49,15.34,67.26200000000006,89,14,2.42,IN,14-Nov-2019 22:31:46
Kropotkin,40.58,45.43,48.254000000000055,51,0,11.02,RU,14-Nov-2019 20:01:46
Yellowknife,-114.38,62.45,-11.001999999999974,83,80,4.02,CA,14-Nov-2019 10:01:46
Gazojak,61.4,41.19,41.702000000000076,13,100,1.18,TM,14-Nov-2019 22:01:46
Abnub,31.15,27.27,82.4,30,3,7.2,EG,14-Nov-2019 19:01:46
Ribeira Grande,-28.7,38.52,64.4,68,75,6.7,PT,14-Nov-2019 16:01:46
Cabo San Lucas,-109.91,22.89,80.00600000000003,53,5,0.67,MX,14-Nov-2019 10:01:46
Dikson,80.55,73.51,-1.4979999999999762,96,66,4.97,RU,15-Nov-2019 00:01:46
East London,27.91,-33.02,62.6,100,90,6.2,ZA,14-Nov-2019 19:01:46
Westport,-73.36,41.14,44.00600000000003,47,1,3.6,US,14-Nov-2019 12:01:46
Conceicao do Araguaia,-49.26,-8.26,94.208,40,90,0.85,BR,14-Nov-2019 14:01:46
Waconia,-93.79,44.85,26.00600000000003,62,1,4.46,US,14-Nov-2019 11:01:46
Lahaina,-156.68,20.87,73.00400000000005,78,20,2.6,US,14-Nov-2019 07:01:46
Sinnamary,-52.96,5.38,82.68800000000005,78,64,5.78,GF,14-Nov-2019 14:01:46
Bud,6.91,62.91,37.4,65,20,4.1,NO,14-Nov-2019 18:01:46
Sorland,12.69,67.67,37.4,75,40,3.6,NO,14-Nov-2019 18:01:46
Saint-Philippe,-73.48,45.36,30.2,79,90,7.2,CA,14-Nov-2019 12:01:46
Sayyan,44.32,15.17,55.18399999999999,43,24,3.73,YE,14-Nov-2019 20:01:46
Presidencia Roque Saenz Pena,-60.44,-26.79,95.64800000000002,25,0,3.82,AR,14-Nov-2019 14:01:46
Mangrol,76.51,25.33,73.27400000000002,45,1,2.66,IN,14-Nov-2019 22:31:46
Mahebourg,57.7,-20.41,75.2,78,40,3.6,MU,14-Nov-2019 21:01:46
Pallasovka,46.89,50.04,33.998000000000026,83,0,3.77,RU,14-Nov-2019 21:01:46
Busselton,115.35,-33.64,64.99400000000007,44,0,6.22,AU,15-Nov-2019 01:01:46
Grand Gaube,57.66,-20.01,75.2,78,40,3.6,MU,14-Nov-2019 21:01:46
Hermanus,19.24,-34.42,69.00800000000001,98,90,1.79,ZA,14-Nov-2019 19:01:46
Doha,51.53,25.29,80.6,41,0,2.6,QA,14-Nov-2019 20:01:46
Paamiut,-49.67,61.99,33.008,86,72,17.69,GL,14-Nov-2019 14:01:46
Omsukchan,155.8,62.53,-1.6959999999999482,100,94,1.37,RU,15-Nov-2019 04:01:46
Chokurdakh,147.9,70.62,-1.8399999999999679,97,93,0.94,RU,15-Nov-2019 04:01:46
Victoria,115.24,5.28,80.6,83,75,1,BN,15-Nov-2019 01:01:46
Bambous Virieux,57.76,-20.34,75.2,78,40,3.6,MU,14-Nov-2019 21:01:46
Leshukonskoye,45.76,64.9,33.35,96,100,3.22,RU,14-Nov-2019 20:01:46
Ahuimanu,-157.84,21.44,75.2,83,20,1.5,US,14-Nov-2019 07:01:46
Arraial do Cabo,-42.02,-22.97,77.0,78,90,9.8,BR,14-Nov-2019 14:01:46
Jamestown,138.6,-33.21,45.158,95,1,2.06,AU,15-Nov-2019 03:31:46
Nikolayevsk-na-amure,140.72,53.14,6.494000000000074,92,100,9.57,RU,15-Nov-2019 03:01:46
Summerside,-63.79,46.39,35.00600000000003,59,88,3.75,CA,14-Nov-2019 13:01:46
Kapaa,-159.32,22.08,71.6,88,1,4.1,US,14-Nov-2019 07:01:46
Mayumba,10.65,-3.44,81.17600000000009,82,100,3.73,GA,14-Nov-2019 18:01:46
Hualmay,-77.61,-11.1,71.65400000000005,60,92,5.04,PE,14-Nov-2019 12:01:46
Fortuna,-124.16,40.6,53.99600000000005,100,90,1.21,US,14-Nov-2019 09:01:46
Puerto Ayora,-90.35,-0.74,75.2,69,75,3.1,EC,14-Nov-2019 11:01:46
Qaanaaq,-69.36,77.48,11.33600000000007,59,81,3.97,GL,14-Nov-2019 13:01:46
Qaqortoq,-46.03,60.72,41.0,48,75,7.2,GL,14-Nov-2019 14:01:46
Imbituba,-48.67,-28.24,75.2,94,75,7.2,BR,14-Nov-2019 14:01:46
Port Blair,92.75,11.67,83.13800000000005,72,81,1.8,IN,14-Nov-2019 22:31:46
Taoudenni,-3.98,22.68,73.22000000000006,22,8,1.79,ML,14-Nov-2019 17:01:46
Trairi,-39.27,-3.28,91.02200000000003,40,15,6,BR,14-Nov-2019 14:01:46
Vostok,135.83,46.45,3.4160000000000075,69,100,8.83,RU,15-Nov-2019 03:01:46
Yulara,130.99,-25.24,66.2,10,0,2.6,AU,15-Nov-2019 02:31:46
San Quintin,120.52,17.54,71.45600000000003,81,100,2.77,PH,15-Nov-2019 01:01:46
Chuy,-53.46,-33.69,74.89400000000008,73,17,5.06,UY,14-Nov-2019 14:01:46
Touros,-35.46,-5.2,89.6,46,40,7.2,BR,14-Nov-2019 14:01:46
Georgetown,-58.16,6.8,89.6,70,40,3.1,GY,14-Nov-2019 13:01:46
Tual,132.75,-5.67,79.19600000000005,79,100,3.77,ID,15-Nov-2019 02:01:46
Adre,22.2,13.47,81.06800000000008,14,54,3.77,TD,14-Nov-2019 18:01:46
Sao Filipe,-24.5,14.9,73.09400000000008,81,100,7.35,CV,14-Nov-2019 16:01:46
Avarua,-159.78,-21.21,75.2,83,0,3.1,CK,14-Nov-2019 07:01:46
Burnie,145.91,-41.05,53.00600000000003,83,100,3.13,AU,15-Nov-2019 04:01:46
Yenagoa,6.26,4.92,79.19600000000005,89,100,1.94,NG,14-Nov-2019 18:01:46
Port Elizabeth,-74.98,39.31,46.99400000000007,48,1,5.7,US,14-Nov-2019 12:01:46
Kingsport,-82.56,36.55,39.00200000000008,59,1,1.2,US,14-Nov-2019 12:01:46
La Ronge,-105.3,55.1,12.776000000000089,65,100,2.88,CA,14-Nov-2019 11:01:46
Kudahuvadhoo,72.89,2.67,82.958,77,100,4.38,MV,14-Nov-2019 22:01:46
Viransehir,39.76,37.24,62.74400000000007,28,93,1.43,TR,14-Nov-2019 20:01:46
Codrington,153.24,-28.95,62.99600000000005,87,0,1.25,AU,15-Nov-2019 04:01:46
Mangan,88.54,27.5,50.0,49,3,2.3,IN,14-Nov-2019 22:31:46
Esperance,121.89,-33.86,59.0,87,90,3.6,AU,15-Nov-2019 01:01:46
Huilong,106.5,31.15,56.53399999999999,72,0,0.82,CN,15-Nov-2019 01:01:46
Agadez,7.99,16.97,84.2,12,92,8.2,NE,14-Nov-2019 18:01:46
Kinablangan,126.55,7.69,73.13000000000004,87,18,1.78,PH,15-Nov-2019 01:01:46
Pozo Colorado,-58.8,-23.49,93.434,34,100,3.65,PY,14-Nov-2019 14:01:46
Nemuro,145.57,43.32,33.27800000000006,52,54,12.05,JP,15-Nov-2019 02:01:46
Puerto Quijarro,-57.72,-19,75.2,94,75,2.01,BO,14-Nov-2019 13:01:46
Mount Darwin,31.58,-16.77,74.53399999999999,65,76,2.98,ZW,14-Nov-2019 19:01:46
Torbay,-52.73,47.66,35.99600000000005,63,16,1.79,CA,14-Nov-2019 13:31:46
Airai,125.41,-8.93,67.22600000000008,63,0,1.58,TL,15-Nov-2019 02:01:46
Camacha,-16.33,33.08,68.0,68,75,8.2,PT,14-Nov-2019 17:01:46
Katsuura,134.5,33.93,48.2,61,20,4.1,JP,15-Nov-2019 02:01:46
Severo-Kurilsk,156.12,50.68,36.28399999999999,99,100,8.94,RU,15-Nov-2019 04:01:46
Los Llanos de Aridane,-17.92,28.66,66.2,82,75,5.7,ES,14-Nov-2019 17:01:46
Lima,-77.04,-12.06,69.8,73,90,3.6,PE,14-Nov-2019 12:01:46
Mar del Plata,-67.52,-46.43,73.13000000000004,30,47,5.27,AR,14-Nov-2019 14:01:46
Sola,33.8,-3.17,69.31400000000004,80,87,2.74,TZ,14-Nov-2019 20:01:46
Nome,-94.42,30.04,46.4,81,90,2.6,US,14-Nov-2019 11:01:46
Geraldton,-86.95,49.72,17.6,78,90,4.1,CA,14-Nov-2019 12:01:46
Bryanka,38.67,48.51,42.008,63,0,8.97,UA,14-Nov-2019 19:01:46
Mandera,41.86,3.94,88.53800000000004,42,96,3.99,ET,14-Nov-2019 20:01:46
Suez,32.54,29.97,76.04600000000005,42,0,2.64,EG,14-Nov-2019 19:01:46
Sur,59.53,22.57,75.12800000000007,41,0,6.26,OM,14-Nov-2019 21:01:46
Carnarvon,22.13,-30.97,69.89000000000001,25,0,7.9,ZA,14-Nov-2019 19:01:46
Hailar,119.7,49.2,1.9580000000000055,80,11,3.77,CN,15-Nov-2019 01:01:46
Clyde River,-68.59,70.47,7.448000000000025,93,96,4.95,CA,14-Nov-2019 12:01:46
Barabai,115.38,-2.59,72.01400000000004,93,100,0.72,ID,15-Nov-2019 01:01:46
Porto Torres,8.4,40.84,60.8,67,20,10.8,IT,14-Nov-2019 18:01:46
Buraydah,43.97,26.33,68.0,82,40,3.6,SA,14-Nov-2019 20:01:46
Siilinjarvi,27.67,63.08,42.8,100,90,7.2,FI,14-Nov-2019 19:01:46
Promyshlennaya,85.64,54.92,-2.199999999999946,84,90,4,RU,15-Nov-2019 00:01:46
Cidreira,-50.22,-30.17,74.75,80,39,6.16,BR,14-Nov-2019 14:01:46
Aksarayskiy,48.01,46.79,42.008,65,0,5,RU,14-Nov-2019 21:01:46
Adamas,24.43,36.73,64.4,82,0,3.1,GR,14-Nov-2019 19:01:46
NEDJO,35.5,9.5,60.08000000000004,88,82,1.15,ET,14-Nov-2019 20:01:46
Bethel,-161.76,60.79,10.399999999999999,84,90,10.3,US,14-Nov-2019 08:01:46
Bhopal,77.4,23.25,68.0,82,0,1,IN,14-Nov-2019 22:31:46
Bela,66.31,26.23,76.67600000000009,46,20,1.99,PK,14-Nov-2019 22:01:46
Fairbanks,-147.72,64.84,10.399999999999999,55,90,6.7,US,14-Nov-2019 08:01:46
Baykit,96.39,61.68,-17.067999999999984,95,100,2.03,RU,15-Nov-2019 00:01:46
Castro,-73.76,-42.48,57.2,87,90,5.1,CL,14-Nov-2019 14:01:46
Goundam,-3.66,16.42,79.17800000000007,13,0,3.21,ML,14-Nov-2019 17:01:46
Riyadh,46.72,24.63,71.6,46,0,1,SA,14-Nov-2019 20:01:46
Santa Maria,-48.01,-16.02,84.2,48,75,4.1,BR,14-Nov-2019 14:01:46
Ponta Delgada,-25.67,37.73,64.4,59,75,5.1,PT,14-Nov-2019 16:01:46
Barrow,-60.23,-38.31,77.25200000000008,29,0,7.86,AR,14-Nov-2019 14:01:46
Nanortalik,-45.24,60.14,35.99600000000005,77,100,16.47,GL,14-Nov-2019 14:01:46
Pisco,-76.2,-13.71,71.6,30,90,3.1,PE,14-Nov-2019 12:01:46
Calera,-86.75,33.1,44.99600000000005,65,90,0.79,US,14-Nov-2019 11:01:46
Matara,29.48,-3.48,58.964000000000034,94,100,1.67,BI,14-Nov-2019 19:01:46
Rio Muerto,-110.23,27.42,71.6,60,5,1,MX,14-Nov-2019 10:01:46
Micheweni,39.83,-4.97,81.86000000000008,80,68,4.22,TZ,14-Nov-2019 20:01:46
Butaritari,172.79,3.07,83.858,74,86,3.81,KI,15-Nov-2019 05:01:46
Norman Wells,-126.83,65.28,-11.235999999999969,89,100,1.77,CA,14-Nov-2019 10:01:46
Ayr,147.4,-19.58,71.99600000000005,86,12,3.62,AU,15-Nov-2019 03:01:46
Portland,-70.25,43.66,33.998000000000026,63,90,1.5,US,14-Nov-2019 12:01:46
Mbandaka,18.26,0.05,74.96600000000001,88,100,1.35,CD,14-Nov-2019 18:01:46
Sitka,-99.65,37.17,46.99400000000007,60,13,0.89,US,14-Nov-2019 11:01:46
New Norfolk,147.06,-42.78,53.6,46,40,9.3,AU,15-Nov-2019 04:01:46
Bilibino,166.44,68.06,12.344000000000072,83,100,1.25,RU,15-Nov-2019 05:01:46
Coquimbo,-71.34,-29.95,62.6,77,40,5.1,CL,14-Nov-2019 14:01:46
Longyearbyen,15.63,78.22,26.6,68,20,8.2,NO,14-Nov-2019 18:01:46
Mataura,168.86,-46.19,42.008,93,65,1.34,NZ,15-Nov-2019 06:01:46
Lagoa,-8.45,37.14,59.0,58,20,8.2,PT,14-Nov-2019 17:01:46
Saskylakh,114.09,71.97,-11.073999999999963,96,100,7.12,RU,15-Nov-2019 02:01:46
Xichang,102.25,27.88,41.0,95,0,1.54,CN,15-Nov-2019 01:01:46
Pacific Grove,-121.92,36.62,57.992,76,1,4.1,US,14-Nov-2019 09:01:46
Esna,27.57,45.2,53.6,81,90,8.2,RO,14-Nov-2019 19:01:46
Alofi,-169.92,-19.06,64.4,100,52,0.5,NU,14-Nov-2019 06:01:46
Galveston,-86.19,40.58,35.6,83,90,2.1,US,14-Nov-2019 12:01:46
Dwarka,77.04,28.58,68.0,72,40,3.95,IN,14-Nov-2019 22:31:46
Benjamin Aceval,-57.57,-24.97,80.6,69,75,6.2,PY,14-Nov-2019 14:01:46
Margate,147.26,-43.03,53.6,46,40,9.3,AU,15-Nov-2019 04:01:46
Marawi,124.29,8,77.0,93,1,2.24,PH,15-Nov-2019 01:01:46
Preeceville,-102.67,51.95,21.02000000000006,82,77,4.8,CA,14-Nov-2019 11:01:46
Saldanha,-6.55,41.42,38.12000000000006,86,82,8.35,PT,14-Nov-2019 17:01:46
Kalakamati,27.31,-20.59,91.4,31,20,4.1,BW,14-Nov-2019 19:01:46
Ilulissat,-51.1,69.22,42.8,52,75,14.4,GL,14-Nov-2019 14:01:46
Husavik,-96.99,50.56,28.004000000000055,85,93,2.68,CA,14-Nov-2019 11:01:46
Lazarev,141.51,52.23,10.706000000000028,88,100,12.63,RU,15-Nov-2019 03:01:46
Nisia Floresta,-35.21,-6.09,89.6,52,40,7.7,BR,14-Nov-2019 14:01:46
Puerto Rico,-75.15,1.91,81.734,80,32,0.69,CO,14-Nov-2019 12:01:46
Puerto Escondido,-97.07,15.86,86.0,66,5,3.6,MX,14-Nov-2019 11:01:46
Mareeba,145.42,-16.99,71.6,83,21,0.91,AU,15-Nov-2019 03:01:46
Berdigestyakh,126.7,62.1,-13.719999999999956,92,100,2.55,RU,15-Nov-2019 02:01:46
Wajir,40.07,1.75,82.4,74,20,2.76,KE,14-Nov-2019 20:01:46
Eureka,-124.16,40.8,53.99600000000005,100,90,1.19,US,14-Nov-2019 09:01:46
La Rioja,-66.86,-29.41,83.03000000000004,27,0,5.63,AR,14-Nov-2019 14:01:46
Igra,53.1,57.55,26.99600000000005,90,90,0.45,RU,14-Nov-2019 21:01:46
Tautira,-149.15,-17.73,78.8,65,40,3.1,PF,14-Nov-2019 07:01:46
Kassala,36.38,15.45,89.47400000000002,25,62,1.42,SD,14-Nov-2019 19:01:46
Cukai,103.42,4.25,78.8,94,98,1.5,MY,15-Nov-2019 01:01:46
Saint George,22.34,39.45,59.0,87,20,2.1,GR,14-Nov-2019 19:01:46
Bredasdorp,20.04,-34.53,68.0,88,87,4.1,ZA,14-Nov-2019 19:01:46
Calamar,-72.65,1.96,85.06400000000004,80,84,1.3,CO,14-Nov-2019 12:01:46
Waipawa,176.59,-39.94,50.0,87,16,6.71,NZ,15-Nov-2019 06:01:46
Port Moresby,147.16,-9.47,75.2,94,20,1.5,PG,15-Nov-2019 03:01:46
Erdenet,104.04,49.03,8.024000000000012,91,97,0.99,MN,15-Nov-2019 01:01:46
Valparaiso,-87.06,41.47,33.008,80,90,2.1,US,14-Nov-2019 11:01:46
Uto,130.61,32.68,50.0,100,0,4.01,JP,15-Nov-2019 02:01:46
Coihaique,-72.07,-45.58,59.0,72,75,1,CL,14-Nov-2019 14:01:46
Klaksvik,-6.59,62.23,37.4,69,40,7.2,FO,14-Nov-2019 17:01:46
Sao Joao da Barra,-41.05,-21.64,80.6,74,90,10.3,BR,14-Nov-2019 14:01:46
Tasiilaq,-37.64,65.61,32.0,97,100,18.5,GL,14-Nov-2019 14:01:46
Elko,-115.76,40.83,42.008,51,1,1.5,US,14-Nov-2019 09:01:46
Alice,26.83,-32.79,59.9,93,80,2.02,ZA,14-Nov-2019 19:01:46
Bhuj,69.67,23.25,78.54800000000003,58,1,4.24,IN,14-Nov-2019 22:31:46
Port Macquarie,152.91,-31.43,53.99600000000005,81,90,0.5,AU,15-Nov-2019 04:01:46
Kruisfontein,24.73,-34,58.748000000000026,90,0,0.85,ZA,14-Nov-2019 19:01:46
Mikkeli,27.27,61.69,44.99600000000005,100,100,3.58,FI,14-Nov-2019 19:01:46
Tateyama,137.31,36.66,46.99400000000007,93,63,0.89,JP,15-Nov-2019 02:01:46
Tromso,18.96,69.65,26.00600000000003,92,20,1,NO,14-Nov-2019 18:01:46
Kemise,39.87,10.72,65.26400000000004,57,52,2.19,ET,14-Nov-2019 20:01:46
Yokadouma,15.05,3.52,78.92600000000009,67,94,0.43,CM,14-Nov-2019 18:01:46
Port Lincoln,135.86,-34.72,50.18000000000004,87,56,2.06,AU,15-Nov-2019 03:31:46
Donghai,118.76,34.52,53.00600000000003,58,0,2.24,CN,15-Nov-2019 01:01:46
Vila Velha,-38.6,-3.71,86.0,58,40,8.2,BR,14-Nov-2019 14:01:46
San Andres,122.68,13.32,76.94600000000005,89,100,3.75,PH,15-Nov-2019 01:01:46
Tabory,19.53,53.89,44.00600000000003,87,20,1.94,PL,14-Nov-2019 18:01:46
Ondjiva,15.73,-17.07,93.2,21,20,3.1,AO,14-Nov-2019 18:01:46
Leningradskiy,178.42,69.38,16.916000000000007,83,96,5.83,RU,15-Nov-2019 05:01:46
Hofn,-15.21,64.25,37.43600000000007,54,0,4.14,IS,14-Nov-2019 17:01:46
Port Alfred,26.89,-33.59,64.99400000000007,90,56,0.45,ZA,14-Nov-2019 19:01:46
Zhigansk,123.37,66.77,-17.445999999999948,94,87,4.61,RU,15-Nov-2019 02:01:46
Hambantota,81.12,6.12,80.88800000000005,80,97,5.3,LK,14-Nov-2019 22:31:46
Subang,108.54,-7.13,71.65400000000005,75,100,1.56,ID,15-Nov-2019 00:01:46
Praya,116.27,-8.71,77.0,88,20,1,ID,15-Nov-2019 01:01:46
Hervey Bay,152.85,-25.3,75.99199999999999,83,75,1.02,AU,15-Nov-2019 03:01:46
Lata,78.62,30.78,29.552000000000078,59,100,2.37,IN,14-Nov-2019 22:31:46
Lorengau,147.27,-2.02,82.92200000000004,73,32,3.22,PG,15-Nov-2019 03:01:46
Muros,-9.06,42.77,55.99400000000007,87,75,7.7,ES,14-Nov-2019 18:01:46
Shache,77.24,38.42,39.00200000000008,47,100,0.89,CN,15-Nov-2019 01:01:46
Noyabrsk,75.45,63.2,-12.909999999999982,99,67,4.25,RU,14-Nov-2019 22:01:46
Saint Peters,-89.39,35.62,48.00200000000008,39,1,2.14,US,14-Nov-2019 11:01:46
Ponta do Sol,-46,-20.63,79.592,67,96,4.48,BR,14-Nov-2019 14:01:46
Bukama,25.85,-9.2,78.98000000000005,67,93,1.58,CD,14-Nov-2019 19:01:46
Bossier City,-93.73,32.52,44.00600000000003,93,90,1.5,US,14-Nov-2019 11:01:46
Comodoro Rivadavia,-67.48,-45.87,75.2,33,75,7.2,AR,14-Nov-2019 14:01:46
Nago,10.89,45.88,53.00600000000003,62,75,2.6,IT,14-Nov-2019 18:01:46
Bagdarin,113.59,54.44,-17.30199999999998,87,0,2.25,RU,15-Nov-2019 01:01:46
Beira,-8.36,43.2,55.004000000000055,71,40,10.8,ES,14-Nov-2019 18:01:46
Wokha,94.25,26.1,57.272000000000034,97,0,1.42,IN,14-Nov-2019 22:31:46
Berlevag,29.09,70.86,32.0,92,75,4.03,NO,14-Nov-2019 18:01:46
Petropavlovsk-Kamchatskiy,158.65,53.05,24.8,85,75,11.4,RU,15-Nov-2019 05:01:46
Leh,77.58,34.16,19.52600000000009,77,100,2.5,IN,14-Nov-2019 22:31:46
Assiniboia,-105.99,49.63,32.86400000000003,84,30,3.28,CA,14-Nov-2019 11:01:46
Nikolskoye,30.79,59.7,48.992,76,100,6,RU,14-Nov-2019 20:01:46
Awjilah,21.3,29.14,62.041999999999994,26,0,4.18,LY,14-Nov-2019 19:01:46
Tungor,142.95,53.39,12.362000000000059,90,75,8.91,RU,15-Nov-2019 04:01:46
Faya,42.45,18.39,64.4,87,75,3.1,SA,14-Nov-2019 20:01:46
Sainte-Anne-des-Monts,-66.49,49.13,20.678000000000065,71,100,4.16,CA,14-Nov-2019 12:01:46
Meulaboh,96.13,4.14,81.5,78,100,2,ID,15-Nov-2019 00:01:46
Kangaatsiaq,-53.46,68.31,40.658,65,98,13.42,GL,14-Nov-2019 14:01:46
Nicoya,-85.45,10.15,84.2,74,20,2.1,CR,14-Nov-2019 11:01:46
Aconibe,10.94,1.29,70.41200000000006,95,99,0.74,GQ,14-Nov-2019 18:01:46
Bloemfontein,26.22,-29.12,73.4,33,20,7.2,ZA,14-Nov-2019 19:01:46
Hithadhoo,73.08,-0.6,82.61600000000001,79,68,4.59,MV,14-Nov-2019 22:01:46
Altamira,-52.21,-3.2,93.90200000000007,42,96,0.97,BR,14-Nov-2019 14:01:46
Mehamn,27.85,71.03,33.8,97,75,2.1,NO,14-Nov-2019 18:01:46
Ancud,-73.83,-41.87,57.2,87,90,5.1,CL,14-Nov-2019 14:01:46
Yamada,137.08,36.58,46.99400000000007,87,75,2.1,JP,15-Nov-2019 02:01:46
Mitake,139.17,35.79,60.008,54,75,4.6,JP,15-Nov-2019 02:01:46
Bogoroditsk,38.13,53.77,34.952000000000076,82,42,4.67,RU,14-Nov-2019 20:01:46
Grindavik,-22.43,63.84,32.0,70,95,4.6,IS,14-Nov-2019 17:01:46
Dillon,-112.64,45.22,33.008,74,1,3.6,US,14-Nov-2019 10:01:46
Sabha,14.43,27.03,62.42000000000006,28,0,0.77,LY,14-Nov-2019 19:01:46
Fecamp,0.37,49.76,41.0,80,44,2.6,FR,14-Nov-2019 18:01:46
Yerbogachen,108.01,61.28,-23.76399999999999,97,66,1.25,RU,15-Nov-2019 01:01:46
Havoysund,24.66,71,33.8,74,75,4.6,NO,14-Nov-2019 18:01:46
Saint-Augustin,-73.98,45.63,28.004000000000055,79,90,7.2,CA,14-Nov-2019 12:01:46
Khatanga,102.47,71.98,-15.051999999999978,96,100,5.36,RU,15-Nov-2019 00:01:46
Sesheke,24.29,-17.47,84.2,62,100,1.5,NA,14-Nov-2019 19:01:46
Kendari,122.52,-3.99,71.924,93,21,0.49,ID,15-Nov-2019 01:01:46
Kjopsvik,16.37,68.1,35.00600000000003,92,20,3.6,NO,14-Nov-2019 18:01:46
Namibe,12.15,-15.19,72.71600000000001,83,92,5.57,AO,14-Nov-2019 18:01:46
Gouyave,-61.73,12.16,87.8,70,40,4.7,GD,14-Nov-2019 13:01:46
Henties Bay,14.28,-22.12,62.99600000000005,87,64,0.45,NA,14-Nov-2019 19:01:46
Maceio,-35.74,-9.67,86.0,51,40,6.7,BR,14-Nov-2019 14:01:46
Muhos,26,64.81,33.8,100,90,3.1,FI,14-Nov-2019 19:01:46
Port-Gentil,8.78,-0.72,77.0,94,40,1,GA,14-Nov-2019 18:01:46
Kaitangata,169.85,-46.28,44.99600000000005,95,75,0.89,NZ,15-Nov-2019 06:01:46
Chadiza,32.43,-14.06,85.02800000000006,31,100,1.38,ZM,14-Nov-2019 19:01:46
Huarmey,-78.15,-10.07,76.53200000000001,52,49,5.86,PE,14-Nov-2019 12:01:46
Vao,26.19,59.1,46.58000000000004,87,100,3.56,EE,14-Nov-2019 19:01:46
Oktyabrskiy,37.97,55.61,42.8,82,84,3,RU,14-Nov-2019 20:01:46
Sale,147.06,-38.11,57.00200000000008,83,97,1.79,AU,15-Nov-2019 04:01:46
San Patricio,-56.83,-26.98,86.81000000000009,43,0,4.89,PY,14-Nov-2019 14:01:46
Ashtian,50,34.52,41.48600000000007,39,95,2.02,IR,14-Nov-2019 20:31:46
Shilka,116.03,51.85,-4.467999999999982,75,33,1.02,RU,15-Nov-2019 02:01:46
Sabang,121.11,13.8,77.0,91,100,0.43,PH,15-Nov-2019 01:01:46
The Valley,-63.06,18.22,87.99800000000002,58,40,5.7,AI,14-Nov-2019 13:01:46
Ahipara,173.16,-35.17,53.00600000000003,100,83,7.74,NZ,15-Nov-2019 06:01:46
Vila Franca do Campo,-25.43,37.72,64.4,59,75,5.1,PT,14-Nov-2019 16:01:46
Dunedin,170.5,-45.87,48.992,95,68,1.97,NZ,15-Nov-2019 06:01:46
Polonnaruwa,81,7.94,75.63200000000002,90,100,1,LK,14-Nov-2019 22:31:46
Faanui,-151.75,-16.48,79.37600000000009,79,42,8.87,PF,14-Nov-2019 07:01:46
Presidente Dutra,-44.49,-5.29,95.9,34,52,2.24,BR,14-Nov-2019 14:01:46
Bosaso,49.18,11.28,80.36600000000001,77,0,7.81,SO,14-Nov-2019 20:01:46
Flinders,150.85,-34.58,66.2,37,42,2.6,AU,15-Nov-2019 04:01:46
Narsaq,-46.05,60.91,41.0,48,75,7.2,GL,14-Nov-2019 14:01:46
Jadu,12.03,31.95,62.83399999999999,41,0,4.65,LY,14-Nov-2019 19:01:46
Diego de Almagro,-70.05,-26.39,84.434,18,0,7.23,CL,14-Nov-2019 14:01:46
Bada,3.75,7.45,78.33200000000002,60,41,0.95,NG,14-Nov-2019 18:01:46
Te Anau,167.72,-45.41,40.85600000000003,85,61,2.72,NZ,15-Nov-2019 06:01:46
Pudozh,36.54,61.81,40.73000000000004,93,100,4.28,RU,14-Nov-2019 20:01:46
Tarija,-64.73,-21.53,75.2,38,75,2.1,BO,14-Nov-2019 13:01:46
Terracina,13.25,41.29,57.2,87,90,2.1,IT,14-Nov-2019 18:01:46
Guerrero Negro,-114.04,27.97,76.02800000000006,46,0,1.2,MX,14-Nov-2019 10:01:46
Tawang,91.87,27.59,34.23200000000001,88,46,1.58,BT,14-Nov-2019 22:31:46
Kourou,-52.64,5.16,93.2,49,36,3.1,GF,14-Nov-2019 14:01:46
Shubarkuduk,56.49,49.15,28.814000000000032,71,3,5.7,KZ,14-Nov-2019 22:01:46
Teguise,-13.56,29.06,71.6,68,40,8.7,ES,14-Nov-2019 17:01:46
Sayansk,102.18,54.11,5.594000000000072,79,42,0.61,RU,15-Nov-2019 01:01:46
Sagamihara,139.24,35.57,60.008,54,75,4.6,JP,15-Nov-2019 02:01:46
Kavieng,150.8,-2.57,82.50800000000001,75,74,1.72,PG,15-Nov-2019 03:01:46
Champerico,-93.6,16.38,71.6,73,90,1.5,MX,14-Nov-2019 11:01:46
Ouallam,2.08,14.32,87.44000000000003,10,0,3.73,NE,14-Nov-2019 18:01:46
Mackay,-115.58,53.65,21.2,100,1,2.1,CA,14-Nov-2019 10:01:46
Nhulunbuy,136.78,-12.18,75.2,88,54,1.23,AU,15-Nov-2019 02:31:46
Byron Bay,153.62,-28.65,69.00800000000001,93,82,1.13,AU,15-Nov-2019 04:01:46
Daru,143.21,-9.07,75.48800000000004,94,90,2.24,PG,15-Nov-2019 03:01:46
Parabel,81.5,58.71,-1.0839999999999392,90,87,3.72,RU,15-Nov-2019 00:01:46
Shahrud,54.97,36.42,42.02600000000009,76,100,1.88,IR,14-Nov-2019 20:31:46
Paducah,-88.6,37.08,42.008,56,1,2.1,US,14-Nov-2019 11:01:46
Trstena,19.61,49.36,44.99600000000005,86,100,1,SK,14-Nov-2019 18:01:46
Geilo,8.21,60.53,15.674000000000014,95,97,0.87,NO,14-Nov-2019 18:01:46
Kavaratti,72.64,10.57,82.81400000000004,67,0,1.57,IN,14-Nov-2019 22:31:46
Bambanglipuro,110.28,-7.95,75.99199999999999,91,99,2.6,ID,15-Nov-2019 00:01:46
Sioux Lookout,-91.92,50.1,15.8,72,90,6.2,CA,14-Nov-2019 11:01:46
Barmer,71.4,25.74,72.32000000000006,67,0,4.54,IN,14-Nov-2019 22:31:46
Christchurch,172.64,-43.53,48.00200000000008,93,51,1,NZ,15-Nov-2019 06:01:46
Grand-Santi,-54.38,4.27,96.31400000000004,37,31,1.06,GF,14-Nov-2019 14:01:46
Alakurtti,30.34,66.96,26.99600000000005,94,100,0.45,RU,14-Nov-2019 20:01:46
Cabras,-75.6,5.5,64.99400000000007,82,12,0.45,CO,14-Nov-2019 12:01:46
Guozhen,113.14,29.3,56.82200000000004,30,0,3.61,CN,15-Nov-2019 01:01:46
Sulphur Springs,-95.6,33.14,50.0,61,90,2.09,US,14-Nov-2019 11:01:46
Pevek,170.27,69.7,21.883999999999993,58,100,5.86,RU,15-Nov-2019 05:01:46
Lufilufi,-171.6,-13.87,79.08800000000005,79,19,6.55,WS,15-Nov-2019 07:01:46
Avesta,16.18,60.15,37.4,92,90,2.1,SE,14-Nov-2019 18:01:46
Taloqan,69.54,36.74,41.918000000000085,68,38,0.47,AF,14-Nov-2019 21:31:46
Ixtapa,-105.21,20.71,80.99600000000005,73,75,1.86,MX,14-Nov-2019 11:01:46
Kamaishi,141.86,39.28,35.24000000000002,56,0,1.67,JP,15-Nov-2019 02:01:46
Panshi,126.05,42.94,17.906000000000027,58,100,3.34,CN,15-Nov-2019 01:01:46
Umm Bab,50.81,25.21,77.0,36,20,1.5,QA,14-Nov-2019 20:01:46
Nadym,72.51,65.53,-8.589999999999968,99,91,2.7,RU,14-Nov-2019 22:01:46
West Odessa,-102.48,31.84,51.998000000000026,43,1,5.7,US,14-Nov-2019 11:01:46
Oriximina,-55.87,-1.77,90.77000000000007,54,100,0.96,BR,14-Nov-2019 14:01:46
Pacifica,-122.49,37.61,59.0,82,90,3.6,US,14-Nov-2019 09:01:46
Haimen,121.18,31.87,60.008,63,0,4.71,CN,15-Nov-2019 01:01:46
Lao Cai,103.95,22.48,61.141999999999996,97,27,0.31,VN,15-Nov-2019 00:01:46
Umm Lajj,37.27,25.02,79.26800000000009,57,40,1.27,SA,14-Nov-2019 20:01:46
Banda Aceh,95.32,5.56,74.01200000000006,92,91,1.33,ID,15-Nov-2019 00:01:46
Rockport,-97.05,28.02,51.998000000000026,93,90,6.2,US,14-Nov-2019 11:01:46
Shingu,135.99,33.72,49.64000000000002,65,0,4.16,JP,15-Nov-2019 02:01:46
Fengcheng,124.07,40.45,25.754000000000055,95,78,2.49,CN,15-Nov-2019 01:01:46
Chapais,-74.86,49.78,17.6,85,90,7.2,CA,14-Nov-2019 12:01:46
Kimbe,150.15,-5.56,73.49000000000002,96,99,1.03,PG,15-Nov-2019 03:01:46
Najran,44.22,17.54,71.6,33,0,4.1,SA,14-Nov-2019 20:01:46
Charters Towers,146.27,-20.07,65.62400000000001,92,2,2.29,AU,15-Nov-2019 03:01:46
Abu Dhabi,54.37,24.47,78.8,39,0,2.1,AE,14-Nov-2019 21:01:46
Svetlogorsk,59.15,53.14,17.6,92,90,3,RU,14-Nov-2019 22:01:46
Mildura,142.16,-34.18,53.6,66,0,2.1,AU,15-Nov-2019 04:01:46
Maurawan,80.88,26.43,68.0,94,40,0.17,IN,14-Nov-2019 22:31:46
Cartagena,-1,37.63,55.4,66,20,4.1,ES,14-Nov-2019 18:01:46
Deputatskiy,139.9,69.3,-14.259999999999977,99,14,0.59,RU,15-Nov-2019 03:01:46
Puerto Leguizamo,-74.78,-0.19,86.234,69,60,1.66,CO,14-Nov-2019 12:01:46
Batemans Bay,150.18,-35.71,53.00600000000003,94,30,0.89,AU,15-Nov-2019 04:01:46
Kamenka,28.7,48.03,44.99600000000005,82,95,1.34,MD,14-Nov-2019 19:01:46
Terney,136.61,45.05,14.252000000000077,38,0,6.55,RU,15-Nov-2019 03:01:46
Topolobampo,-109.05,25.6,78.00800000000001,73,5,2.1,MX,14-Nov-2019 10:01:46
Chiredzi,31.67,-21.05,79.25,68,84,6.66,ZW,14-Nov-2019 19:01:46
Puri,112.45,-7.54,77.81000000000009,76,100,0.97,ID,15-Nov-2019 00:01:46
Sao Felix do Xingu,-51.99,-6.64,92.93000000000004,43,100,1.89,BR,14-Nov-2019 14:01:46
Ketchikan,-131.65,55.34,50.0,93,90,12.3,US,14-Nov-2019 08:01:46
Hami,93.51,42.84,30.470000000000063,68,0,1.29,CN,15-Nov-2019 01:01:46
Saint Anthony,-111.68,43.97,41.0,74,1,1.5,US,14-Nov-2019 10:01:46
Nelson Bay,152.14,-32.72,66.99199999999999,72,90,3.6,AU,15-Nov-2019 04:01:46
Yurimaguas,-76.1,-5.9,48.2,100,40,2.1,PE,14-Nov-2019 12:01:46
Aranos,19.11,-24.14,85.442,10,80,4.19,NA,14-Nov-2019 19:01:46
Urengoy,78.37,65.96,-17.121999999999936,89,0,0.61,RU,14-Nov-2019 22:01:46
Batticaloa,81.69,7.71,74.75,93,100,1.01,LK,14-Nov-2019 22:31:46
Manokwari,134.08,-0.87,73.09400000000008,83,99,2.06,ID,15-Nov-2019 02:01:46
Surt,16.59,31.21,64.16600000000001,29,0,3.07,LY,14-Nov-2019 19:01:46
Padang,100.36,-0.92,67.98200000000001,95,100,1.66,ID,15-Nov-2019 00:01:46
Noumea,166.46,-22.28,73.99400000000007,82,3,1.5,NC,15-Nov-2019 04:01:46
Hasaki,140.83,35.73,53.6,66,75,2.6,JP,15-Nov-2019 02:01:46
La Palma,-74.39,5.36,78.44000000000003,80,60,1.65,CO,14-Nov-2019 12:01:46
Det Udom,105.08,14.9,73.4,78,77,3.1,TH,15-Nov-2019 00:01:46
Conde,-37.61,-11.81,79.25,70,19,4.67,BR,14-Nov-2019 14:01:46
Karabulak,78.49,44.91,37.04000000000002,44,33,3.01,KZ,14-Nov-2019 23:01:46
Yaya,86.45,56.2,3.578000000000067,88,86,2.4,RU,15-Nov-2019 00:01:46
Broome,1.45,52.47,44.6,100,40,1.5,GB,14-Nov-2019 17:01:46
Bandraboua,45.12,-12.7,82.4,83,90,2.6,YT,14-Nov-2019 20:01:46
Sao Joao do Piaui,-42.25,-8.36,97.358,19,0,3.58,BR,14-Nov-2019 14:01:46
Kailua,-157.74,21.39,75.2,83,20,1.5,US,14-Nov-2019 07:01:46
Palu,119.87,-0.9,66.32600000000009,97,72,0.93,ID,15-Nov-2019 01:01:46
Soloneshnoye,84.32,51.65,12.686000000000071,95,100,1.45,RU,15-Nov-2019 00:01:46
Ambon,-2.56,47.55,46.99400000000007,81,33,1,FR,14-Nov-2019 18:01:46
Preobrazheniye,133.91,42.9,22.244000000000074,40,34,2.9,RU,15-Nov-2019 03:01:46
Biak,122.88,-0.91,81.91400000000003,59,80,3.07,ID,15-Nov-2019 01:01:46
Dalhousie,-66.37,48.06,26.132000000000016,60,99,1.56,CA,14-Nov-2019 13:01:46
Ayan,44.7,38.23,33.008,50,0,0.5,IR,14-Nov-2019 20:31:46
Cayenne,-52.33,4.94,93.2,49,36,3.1,GF,14-Nov-2019 14:01:46
Tommot,126.27,58.97,-16.88799999999994,97,100,2.84,RU,15-Nov-2019 02:01:46
Jutai,-47.89,-1.71,93.39800000000002,43,88,0.81,BR,14-Nov-2019 14:01:46
Kodinsk,99.18,58.6,0.9500000000000526,97,100,0.82,RU,15-Nov-2019 00:01:46
Yumen,97.04,40.29,28.94000000000002,42,0,7.73,CN,15-Nov-2019 01:01:46
Ourem,-8.59,39.64,59.0,67,40,10.3,PT,14-Nov-2019 17:01:46
Mount Isa,139.49,-20.73,75.2,10,0,5.1,AU,15-Nov-2019 03:01:46
Emba,32.42,34.81,73.4,78,20,2.6,CY,14-Nov-2019 19:01:46
Azovo,73.03,54.7,6.800000000000001,77,0,4,RU,14-Nov-2019 23:01:46
Viedma,-62.99,-40.81,73.25600000000003,29,17,4.56,AR,14-Nov-2019 14:01:46
Plouzane,-4.62,48.38,44.6,93,100,3.1,FR,14-Nov-2019 18:01:46
Wajima,136.9,37.4,47.15600000000003,75,96,3.59,JP,15-Nov-2019 02:01:46
Kattivakkam,80.32,13.22,82.4,83,40,2.1,IN,14-Nov-2019 22:31:46
Medea,2.77,36.27,66.2,55,75,3.6,DZ,14-Nov-2019 18:01:46
Bytow,17.49,54.17,39.00200000000008,100,0,1.5,PL,14-Nov-2019 18:01:46
Concepcion del Oro,-101.42,24.63,55.61600000000001,49,2,3.34,MX,14-Nov-2019 11:01:46
Hirtshals,9.96,57.59,39.992,92,0,0.89,DK,14-Nov-2019 18:01:46
Arman,150.17,59.7,32.12600000000009,71,26,15.78,RU,15-Nov-2019 04:01:46
Lunenburg,-64.32,44.38,35.00600000000003,57,63,0.45,CA,14-Nov-2019 13:01:46
Makakilo City,-158.09,21.35,75.2,94,1,2.1,US,14-Nov-2019 07:01:46
Kasongo-Lunda,16.82,-6.48,71.07800000000006,95,100,0.64,CD,14-Nov-2019 18:01:46
Mikuni,136.15,36.22,46.4,87,75,2.1,JP,15-Nov-2019 02:01:46
Bahia Honda,-83.16,22.9,81.842,65,99,3.57,CU,14-Nov-2019 12:01:46
Barentu,37.59,15.11,83.516,27,76,3.97,ER,14-Nov-2019 20:01:46
Parrita,-84.33,9.52,78.00800000000001,69,75,3.1,CR,14-Nov-2019 11:01:46
Brive-la-Gaillarde,1.53,45.16,42.998000000000026,94,100,0.89,FR,14-Nov-2019 18:01:46
Peace River,-117.29,56.23,19.994000000000074,83,100,3.99,CA,14-Nov-2019 10:01:46
Inuvik,-133.71,68.36,-5.799999999999947,76,90,1,CA,14-Nov-2019 10:01:46
Itoman,127.67,26.12,69.8,68,90,3.6,JP,15-Nov-2019 02:01:46
Jining,116.58,35.41,49.964000000000034,45,0,2.87,CN,15-Nov-2019 01:01:46
Fulton,-91.95,38.85,39.2,64,20,5.7,US,14-Nov-2019 11:01:46
Brae,-1.35,60.4,41.0,93,75,7.7,GB,14-Nov-2019 17:01:46
Alugan,125.48,12.22,79.82600000000009,83,100,2.82,PH,15-Nov-2019 01:01:46
San Jeronimo,-73.37,-13.65,37.4,100,40,6.2,PE,14-Nov-2019 12:01:46
Maragogi,-35.22,-9.01,79.91600000000001,73,62,4.59,BR,14-Nov-2019 14:01:46
Fukuma,130.47,33.77,44.00600000000003,81,0,2.1,JP,15-Nov-2019 02:01:46
Waddan,16.14,29.16,65.46200000000006,26,0,2.17,LY,14-Nov-2019 19:01:46
Lompoc,-120.46,34.64,62.00600000000003,87,1,1.87,US,14-Nov-2019 09:01:46
Saint-Leu,55.28,-21.15,77.0,73,90,5.1,RE,14-Nov-2019 21:01:46
Ryabovo,28.99,60.34,48.00200000000008,86,100,7.15,RU,14-Nov-2019 20:01:46
Zhangye,100.46,38.94,31.064000000000032,21,0,1.5,CN,15-Nov-2019 01:01:46
Bulolo,146.64,-7.2,65.39000000000001,97,87,0.31,PG,15-Nov-2019 03:01:46
Manta,24.1,45.1,53.40200000000008,81,100,3.59,RO,14-Nov-2019 19:01:46
Vacha,10.02,50.83,42.8,70,75,1.5,DE,14-Nov-2019 18:01:46
Haines Junction,-137.51,60.75,13.100000000000001,94,98,0.95,CA,14-Nov-2019 09:01:46
Lubao,25.75,-5.39,71.942,95,85,1.47,CD,14-Nov-2019 19:01:46
Pinhao,-51.66,-25.7,68.18000000000004,94,100,3.04,BR,14-Nov-2019 14:01:46
Acapulco,-99.88,16.86,82.4,69,75,1.5,MX,14-Nov-2019 11:01:46
Nabire,135.5,-3.36,70.57400000000001,97,87,0.87,ID,15-Nov-2019 02:01:46
Bubaque,-15.83,11.28,83.13800000000005,71,69,5.38,GW,14-Nov-2019 17:01:46
Luderitz,15.16,-26.65,77.0,53,17,8.7,NA,14-Nov-2019 19:01:46
Maniitsoq,-52.9,65.42,35.38399999999999,76,83,5.82,GL,14-Nov-2019 14:01:46
Loukhi,33.04,66.08,35.312000000000054,99,100,2.83,RU,14-Nov-2019 20:01:46
Altdorf,8.64,46.88,41.0,80,100,1,CH,14-Nov-2019 18:01:46
Sao Jose da Coroa Grande,-35.15,-8.9,79.91600000000001,73,62,4.59,BR,14-Nov-2019 14:01:46
Andros Town,-77.79,24.73,80.99600000000005,65,75,4.6,BS,14-Nov-2019 12:01:46
Macheng,115.03,31.18,54.30200000000008,29,13,3.35,CN,15-Nov-2019 01:01:46
Port Hardy,-127.42,50.7,45.104000000000056,87,100,2.01,CA,14-Nov-2019 09:01:46
Miragoane,-73.09,18.44,82.04000000000002,69,0,0.81,HT,14-Nov-2019 12:01:46
Pangnirtung,-65.72,66.15,18.698000000000025,66,96,4.55,CA,14-Nov-2019 12:01:46
Bollnas,16.39,61.35,26.888000000000044,93,97,1.77,SE,14-Nov-2019 18:01:46
Islahiye,36.63,37.03,68.0,30,75,1.5,TR,14-Nov-2019 20:01:46
Kutum,24.66,14.2,76.58600000000007,17,26,1.67,SD,14-Nov-2019 19:01:46
Nuuk,-51.74,64.17,33.8,67,93,15.9,GL,14-Nov-2019 14:01:46
Tema,-0.01,5.66,84.2,74,69,2.1,GH,14-Nov-2019 17:01:46
Vestmannaeyjar,-20.27,63.44,33.8,74,43,2.6,IS,14-Nov-2019 17:01:46
Denpasar,115.22,-8.65,78.8,88,20,0.5,ID,15-Nov-2019 01:01:46
La Plata,-57.95,-34.92,84.00200000000008,36,14,4.6,AR,14-Nov-2019 14:01:46
Whitehorse,-135.06,60.72,19.004000000000055,92,100,1.75,CA,14-Nov-2019 09:01:46
Campbell River,-125.24,50.02,44.6,100,90,2.1,CA,14-Nov-2019 09:01:46
Khandyga,135.58,62.65,-11.829999999999941,99,100,1.39,RU,15-Nov-2019 02:01:46
Bahia de Caraquez,-80.42,-0.6,77.0,83,90,3.1,EC,14-Nov-2019 12:01:46
Komsomolskiy,63.78,67.55,3.2180000000000852,76,93,3.73,RU,14-Nov-2019 20:01:46
Brokopondo,-54.98,5.06,91.4,55,40,2.1,SR,14-Nov-2019 14:01:46
Ilo,-71.34,-17.65,69.8,73,75,2.6,PE,14-Nov-2019 12:01:46
Harper,-99.24,30.3,46.4,81,90,3.1,US,14-Nov-2019 11:01:46
Naze,7.07,5.43,86.0,74,75,2.6,NG,14-Nov-2019 18:01:46
Kerkini,23.08,41.22,64.99400000000007,83,11,0.91,GR,14-Nov-2019 19:01:46
Yingcheng,113.57,30.93,59.0,51,0,3,CN,15-Nov-2019 01:01:46
Bonthe,-12.5,7.53,82.38200000000002,78,78,3.22,SL,14-Nov-2019 17:01:46
Rock Sound,-76.2,24.9,78.692,71,26,5.59,BS,14-Nov-2019 12:01:46
Porto Novo,-45.44,-23.68,73.4,78,40,4.1,BR,14-Nov-2019 14:01:46
Moussoro,16.49,13.64,90.68000000000004,9,46,3.68,TD,14-Nov-2019 18:01:46
Eirunepe,-69.87,-6.66,92.408,45,87,1.68,BR,14-Nov-2019 12:01:46
Mende,3.5,44.52,32.0,99,90,1.97,FR,14-Nov-2019 18:01:46
Kaihua,118.41,29.14,47.354000000000056,51,0,0.96,CN,15-Nov-2019 01:01:46
Mitchell,-98.03,43.71,30.002000000000077,79,1,2.1,US,14-Nov-2019 11:01:46
Lamar,-102.62,38.09,39.2,69,1,3.1,US,14-Nov-2019 10:01:46
Tanabe,135.39,33.73,44.99600000000005,83,0,7.67,JP,15-Nov-2019 02:01:46
Honiara,159.96,-9.43,75.2,100,40,1,SB,15-Nov-2019 04:01:46
Niort,-0.46,46.32,44.6,81,45,1.5,FR,14-Nov-2019 18:01:46
Brandon,-96.57,43.59,28.004000000000055,79,1,3.1,US,14-Nov-2019 11:01:46
Yarkovo,82.6,54.81,-2.199999999999946,84,16,1,RU,15-Nov-2019 00:01:46
Maldonado,-54.96,-34.91,69.8,77,90,4.6,UY,14-Nov-2019 14:01:46
Mgandu,34.11,-5.96,70.23200000000001,60,70,2.05,TZ,14-Nov-2019 20:01:46
Haikou,110.34,20.04,75.2,73,75,3,CN,15-Nov-2019 01:01:46
Luanda,13.24,-8.83,86.0,70,75,5.7,AO,14-Nov-2019 18:01:46
Mahibadhoo,72.97,3.78,83.42600000000009,76,100,3.91,MV,14-Nov-2019 22:01:46
Adrar,-0.29,27.87,82.4,17,80,6.7,DZ,14-Nov-2019 18:01:46
Graaff-Reinet,24.53,-32.25,65.26400000000004,57,0,10.12,ZA,14-Nov-2019 19:01:46
Hit,42.83,33.64,71.07800000000006,41,6,2.62,IQ,14-Nov-2019 20:01:46
Cururupu,-44.87,-1.82,91.09400000000008,46,64,3.37,BR,14-Nov-2019 14:01:46
Palauig,119.9,15.44,74.46200000000006,77,92,0.92,PH,15-Nov-2019 01:01:46
Smithers,-127.17,54.78,31.51400000000003,93,100,1.43,CA,14-Nov-2019 09:01:46
Alta Floresta,-56.08,-9.87,87.8,66,40,1,BR,14-Nov-2019 13:01:46
Horasan,42.16,40.04,39.41600000000001,34,0,1.82,TR,14-Nov-2019 20:01:46
Necochea,-58.74,-38.55,62.99600000000005,79,0,3.58,AR,14-Nov-2019 14:01:46
Tiksi,128.87,71.64,-13.935999999999964,98,7,0.21,RU,15-Nov-2019 02:01:46
Ust-Nera,143.24,64.57,-10.533999999999942,99,100,0.77,RU,15-Nov-2019 03:01:46
Kargat,80.28,55.19,0.5180000000000362,95,0,3.67,RU,15-Nov-2019 00:01:46
Tortoli,9.66,39.93,59.0,51,40,6.2,IT,14-Nov-2019 18:01:46
Sao Lourenco do Sul,-51.98,-31.37,84.2,62,20,7.7,BR,14-Nov-2019 14:01:46
Plettenberg Bay,23.37,-34.05,62.96000000000008,82,0,1.68,ZA,14-Nov-2019 19:01:46
Neuquen,-68.06,-38.95,78.8,21,65,3.15,AR,14-Nov-2019 14:01:46
Irece,-41.86,-11.3,93.61400000000003,15,2,2.35,BR,14-Nov-2019 14:01:46
Papetoai,-149.87,-17.5,78.8,65,40,3.1,PF,14-Nov-2019 07:01:46
Tbilisskaya,40.19,45.36,48.524000000000015,51,0,10.32,RU,14-Nov-2019 20:01:46
Avera,-82.53,33.19,46.004000000000055,64,90,5.1,US,14-Nov-2019 12:01:46
Puro,123.76,13.13,77.66600000000001,88,100,1.92,PH,15-Nov-2019 01:01:46
Dicabisagan,122.42,17.08,77.27000000000007,86,100,7.43,PH,15-Nov-2019 01:01:46
Barcelos,-62.93,-0.97,92.62400000000001,49,86,1.75,BR,14-Nov-2019 13:01:46
Aksu,76.93,52.04,12.2,72,100,9,KZ,14-Nov-2019 23:01:46
Koppang,11.04,61.57,18.986000000000068,91,13,1.15,NO,14-Nov-2019 18:01:46
Coueron,-1.72,47.22,44.99600000000005,87,6,1.5,FR,14-Nov-2019 18:01:46
Guane,-84.09,22.2,80.69000000000003,71,97,6.26,CU,14-Nov-2019 12:01:46
San Cristobal,-86.92,14.68,79.08800000000005,61,98,1.08,HN,14-Nov-2019 11:01:46
Camacupa,17.48,-12.02,69.18800000000005,76,79,1.95,AO,14-Nov-2019 18:01:46
Vanavara,102.28,60.35,-22.017999999999986,93,12,2.26,RU,15-Nov-2019 00:01:46
Gbadolite,21,4.28,74.80400000000006,87,100,0.94,CD,14-Nov-2019 18:01:46
Mount Gambier,140.78,-37.83,51.8,93,90,6.2,AU,15-Nov-2019 03:31:46
High Level,-117.13,58.52,10.544000000000075,90,100,4.62,CA,14-Nov-2019 10:01:46
Wladyslawowo,18.4,54.79,39.992,100,0,1.5,PL,14-Nov-2019 18:01:46
Boyuibe,-63.28,-20.43,78.8,65,75,4.73,BO,14-Nov-2019 13:01:46
Labuhan,115.51,-2.54,72.01400000000004,93,100,0.72,ID,15-Nov-2019 01:01:46
Vanimo,141.3,-2.67,81.842,74,15,1,PG,15-Nov-2019 03:01:46
Kysyl-Syr,122.77,63.9,-17.409999999999982,96,98,1.43,RU,15-Nov-2019 02:01:46
Ikot Ekpene,7.71,5.18,78.54800000000003,90,100,2.53,NG,14-Nov-2019 18:01:46
Rawson,-65.11,-43.3,60.63800000000005,55,17,6.26,AR,14-Nov-2019 14:01:46
Whyalla,137.58,-33.04,59.0,72,40,2.6,AU,15-Nov-2019 03:31:46
Maraa,-65.37,-1.83,90.03200000000001,63,95,0.88,BR,14-Nov-2019 13:01:46
Harnosand,17.94,62.63,33.8,76,90,3.6,SE,14-Nov-2019 18:01:46
Kyzyl-Suu,78,42.34,37.05800000000001,54,62,3.72,KG,14-Nov-2019 23:01:46
Loudi,112,27.73,55.23800000000004,41,0,1.28,CN,15-Nov-2019 01:01:46
Tame,-71.72,6.46,91.958,47,0,2.52,CO,14-Nov-2019 12:01:46
Salalah,54.1,17.01,80.6,69,40,3.6,OM,14-Nov-2019 21:01:46
Codajas,-62.06,-3.84,95.81000000000009,38,58,1.46,BR,14-Nov-2019 13:01:46
Dawson Creek,-120.23,55.76,21.2,100,90,2.1,CA,14-Nov-2019 10:01:46
Irun,-1.79,43.34,48.00200000000008,87,71,1.5,FR,14-Nov-2019 18:01:46
Chernyshevskiy,112.47,63.01,-15.213999999999984,98,100,1.39,RU,15-Nov-2019 02:01:46
Copiapo,-70.33,-27.37,68.0,60,20,4.6,CL,14-Nov-2019 14:01:46
Hamilton,-79.87,43.26,33.998000000000026,79,90,5.7,CA,14-Nov-2019 12:01:46
Mountain Home,-115.69,43.13,42.008,100,1,3.6,US,14-Nov-2019 10:01:46
San Francisco,-76.88,1.17,68.0,72,40,3.1,CO,14-Nov-2019 12:01:46
Yelan,43.74,50.95,35.42000000000006,80,13,4.55,RU,14-Nov-2019 21:01:46
Kampene,26.67,-3.59,71.09600000000005,98,100,0.85,CD,14-Nov-2019 19:01:46
Saint-Pierre,4.24,48.95,42.8,93,75,3.1,FR,14-Nov-2019 18:01:46
Rocha,-54.34,-34.48,71.15,70,0,7.02,UY,14-Nov-2019 14:01:46
Lahad Datu,118.33,5.02,74.76800000000009,92,52,1.88,MY,15-Nov-2019 01:01:46
Yukamenskoye,52.24,57.89,29.012000000000057,80,86,6.1,RU,14-Nov-2019 21:01:46
Nipawin,-104.02,53.36,19.472000000000037,73,88,4.81,CA,14-Nov-2019 11:01:46
Port Hedland,118.58,-20.31,84.2,20,1,5.1,AU,15-Nov-2019 01:01:46
Kiruna,20.23,67.86,8.600000000000001,84,0,1.5,SE,14-Nov-2019 18:01:46
Bandarbeyla,50.81,9.49,79.934,79,83,7.74,SO,14-Nov-2019 20:01:46
Celestun,-90.4,20.87,78.51200000000006,81,7,4.67,MX,14-Nov-2019 11:01:46
Beyneu,55.19,45.32,41.306000000000026,73,88,7.24,KZ,14-Nov-2019 22:01:46
Sedalia,-93.23,38.7,41.0,74,1,2.93,US,14-Nov-2019 11:01:46
Chippewa Falls,-91.39,44.94,24.998000000000026,67,90,3.1,US,14-Nov-2019 11:01:46
Nouadhibou,-17.03,20.93,73.4,64,100,4.6,MR,14-Nov-2019 17:01:46
